{ "type": "Feature", "geometry": {"type": "Point", "coordinates": [-122.1607895
, 37.4446602]}, "properties": {"Year": "1996", "Team Number": "8", "City": "Palo Alto", "State": "California", "Country": "USA", "Team Name": "8: Team 8"}},{ "type": "Feature", "geometry": {"type": "Point", "coordinates": [-92.3852921
, 36.3350983]}, "properties": {"Year": "1996", "Team Number": "16", "City": "Mountain Home", "State": "Arkansas", "Country": "USA", "Team Name": "16: Bomb Squad"}},{ "type": "Feature", "geometry": {"type": "Point", "coordinates": [-72.2953262
, 41.0010681]}, "properties": {"Year": "1996", "Team Number": "28", "City": "Sag Harbor", "State": "New York", "Country": "USA", "Team Name": "28: Pierson Whalers"}},{ "type": "Feature", "geometry": {"type": "Point", "coordinates": [-83.2205276
, 42.6711197]}, "properties": {"Year": "1996", "Team Number": "33", "City": "Auburn Hills", "State": "Michigan", "Country": "USA", "Team Name": "33: Killer Bees"}},{ "type": "Feature", "geometry": {"type": "Point", "coordinates": [-83.2884216
, 42.6368713]}, "properties": {"Year": "1996", "Team Number": "51", "City": "Pontiac", "State": "Michigan", "Country": "USA", "Team Name": "51: The Wings of Fire"}},{ "type": "Feature", "geometry": {"type": "Point", "coordinates": [-70.2517319
, 43.6376114]}, "properties": {"Year": "1996", "Team Number": "58", "City": "South Portland", "State": "Maine", "Country": "USA", "Team Name": "58: The Riot Crew"}},{ "type": "Feature", "geometry": {"type": "Point", "coordinates": [-87.5089264
, 41.6050797]}, "properties": {"Year": "1996", "Team Number": "71", "City": "Hammond", "State": "Indiana", "Country": "USA", "Team Name": "71: Team Hammond"}},{ "type": "Feature", "geometry": {"type": "Point", "coordinates": [-74.6531067
, 40.4825516]}, "properties": {"Year": "1996", "Team Number": "75", "City": "Hillsborough", "State": "New Jersey", "Country": "USA", "Team Name": "75: RoboRaiders"}},{ "type": "Feature", "geometry": {"type": "Point", "coordinates": [-71.3113327
, 41.4921608]}, "properties": {"Year": "1996", "Team Number": "78", "City": "Newport", "State": "Rhode Island", "Country": "USA", "Team Name": "78: AIR STRIKE"}},{ "type": "Feature", "geometry": {"type": "Point", "coordinates": [-86.0165329
, 42.8121414]}, "properties": {"Year": "1996", "Team Number": "85", "City": "Zeeland", "State": "Michigan", "Country": "USA", "Team Name": "85: B.O.B. (Built on Brains)"}},{ "type": "Feature", "geometry": {"type": "Point", "coordinates": [-70.9770203
, 41.9887314]}, "properties": {"Year": "1996", "Team Number": "88", "City": "Bridgewater", "State": "Massachusetts", "Country": "USA", "Team Name": "88: TJ(Squared)"}},{ "type": "Feature", "geometry": {"type": "Point", "coordinates": [-71.1060104
, 42.3667908]}, "properties": {"Year": "1996", "Team Number": "97", "City": "Cambridge", "State": "Massachusetts", "Country": "USA", "Team Name": "97: Bionic Beef"}},{ "type": "Feature", "geometry": {"type": "Point", "coordinates": [-87.9804382
, 42.0871811]}, "properties": {"Year": "1996", "Team Number": "111", "City": "Arlington Heights", "State": "Illinois", "Country": "USA", "Team Name": "111: WildStang"}},{ "type": "Feature", "geometry": {"type": "Point", "coordinates": [-77.3855515
, 38.9696884]}, "properties": {"Year": "1996", "Team Number": "116", "City": "Herndon", "State": "Virginia", "Country": "USA", "Team Name": "116: Epsilon Delta"}},{ "type": "Feature", "geometry": {"type": "Point", "coordinates": [-71.4543228
, 41.4887123]}, "properties": {"Year": "1996", "Team Number": "121", "City": "Newport County", "State": "Rhode Island", "Country": "USA", "Team Name": "121: Rhode Warriors"}},{ "type": "Feature", "geometry": {"type": "Point", "coordinates": [-71.6240234
, 42.8619308]}, "properties": {"Year": "1996", "Team Number": "138", "City": "Amherst", "State": "New Hampshire", "Country": "USA", "Team Name": "138: Entropy"}},{ "type": "Feature", "geometry": {"type": "Point", "coordinates": [-69.203949
, 45.3152504]}, "properties": {"Year": "1996", "Team Number": "172", "City": "Gorham/Falmouth", "State": "Maine", "Country": "USA", "Team Name": "172: Northern Force"}},{ "type": "Feature", "geometry": {"type": "Point", "coordinates": [-72.5743637
, 41.9983482]}, "properties": {"Year": "1996", "Team Number": "175", "City": "Enfield", "State": "Connecticut", "Country": "USA", "Team Name": "175: Buzz Robotics"}},{ "type": "Feature", "geometry": {"type": "Point", "coordinates": [-72.631813
, 41.9296989]}, "properties": {"Year": "1996", "Team Number": "176", "City": "Windsor Locks", "State": "Connecticut", "Country": "USA", "Team Name": "176: Aces High"}},