{ "type": "Feature", "geometry": {"type": "Point", "coordinates": [-117.1617203
, 32.7156906]}, "properties": {"Year": "2010", "Team Number": "3128", "City": "San Diego", "State": "California", "Country": "USA", "Team Name": "3128: Aluminum Narwhals"}},{ "type": "Feature", "geometry": {"type": "Point", "coordinates": [-92.9406128
, 44.9198685]}, "properties": {"Year": "2010", "Team Number": "3130", "City": "Woodbury", "State": "Minnesota", "Country": "USA", "Team Name": "3130: The East Ridge Robotic Ominous RaptorS - the ERRORS"}},{ "type": "Feature", "geometry": {"type": "Point", "coordinates": [-122.5946426
, 45.3803902]}, "properties": {"Year": "2010", "Team Number": "3131", "City": "Gladstone", "State": "Oregon", "Country": "USA", "Team Name": "3131: Gladiators"}},{ "type": "Feature", "geometry": {"type": "Point", "coordinates": [151.2030029
, -33.8740005]}, "properties": {"Year": "2010", "Team Number": "3132", "City": "Sydney", "State": "New South Wales", "Country": "Australia", "Team Name": "3132: Thunder Down Under"}},{ "type": "Feature", "geometry": {"type": "Point", "coordinates": [-111.9206924
, 33.4939995]}, "properties": {"Year": "2010", "Team Number": "3133", "City": "Scottsdale", "State": "Arizona", "Country": "USA", "Team Name": "3133: Coronado Robotics"}},{ "type": "Feature", "geometry": {"type": "Point", "coordinates": [-94.61203
, 47.3824005]}, "properties": {"Year": "2010", "Team Number": "3134", "City": "Cass Lake", "State": "Minnesota", "Country": "USA", "Team Name": "3134: The Accelerators"}},{ "type": "Feature", "geometry": {"type": "Point", "coordinates": [-87.6324463
, 41.8842506]}, "properties": {"Year": "2010", "Team Number": "3135", "City": "Chicago", "State": "Illinois", "Country": "USA", "Team Name": "3135: Robotic Colonels"}},{ "type": "Feature", "geometry": {"type": "Point", "coordinates": [-77.4793396
, 37.7588501]}, "properties": {"Year": "2010", "Team Number": "3136", "City": "Ashland", "State": "Virginia", "Country": "USA", "Team Name": "3136: Official Robot Constructors of America (ORCA)"}},{ "type": "Feature", "geometry": {"type": "Point", "coordinates": [-73.1011124
, 40.7657204]}, "properties": {"Year": "2010", "Team Number": "3137", "City": "Bohemia", "State": "New York", "Country": "USA", "Team Name": "3137: T-Birds"}},{ "type": "Feature", "geometry": {"type": "Point", "coordinates": [-84.1944427
, 39.7591095]}, "properties": {"Year": "2010", "Team Number": "3138", "City": "Dayton", "State": "Ohio", "Country": "USA", "Team Name": "3138: Innovators Robotics"}},{ "type": "Feature", "geometry": {"type": "Point", "coordinates": [-83.9209137
, 35.9604912]}, "properties": {"Year": "2010", "Team Number": "3140", "City": "Knoxville", "State": "Tennessee", "Country": "USA", "Team Name": "3140: Flagship"}},{ "type": "Feature", "geometry": {"type": "Point", "coordinates": [-74.7531891
, 41.0585594]}, "properties": {"Year": "2010", "Team Number": "3142", "City": "Newton", "State": "New Jersey", "Country": "USA", "Team Name": "3142: Aperture"}},{ "type": "Feature", "geometry": {"type": "Point", "coordinates": [-116.7758484
, 47.6716805]}, "properties": {"Year": "2010", "Team Number": "3145", "City": "Coeur d'Alene", "State": "Idaho", "Country": "USA", "Team Name": "3145: TeraViks"}},{ "type": "Feature", "geometry": {"type": "Point", "coordinates": [-72.8320923
, 41.9556885]}, "properties": {"Year": "2010", "Team Number": "3146", "City": "Granby", "State": "Connecticut", "Country": "USA", "Team Name": "3146: GRANBY GRUNTS"}},{ "type": "Feature", "geometry": {"type": "Point", "coordinates": [-87.5044327
, 41.5606613]}, "properties": {"Year": "2010", "Team Number": "3147", "City": "Munster", "State": "Indiana", "Country": "USA", "Team Name": "3147: Munster HorsePower"}},{ "type": "Feature", "geometry": {"type": "Point", "coordinates": [-75.1481934
, 39.7663918]}, "properties": {"Year": "2010", "Team Number": "3151", "City": "Sewell", "State": "New Jersey", "Country": "USA", "Team Name": "3151: Cyberstorm"}},{ "type": "Feature", "geometry": {"type": "Point", "coordinates": [-94.8290024
, 33.8956985]}, "properties": {"Year": "2010", "Team Number": "3152", "City": "Idabel", "State": "Oklahoma", "Country": "USA", "Team Name": "3152: KTC-Monsters"}},{ "type": "Feature", "geometry": {"type": "Point", "coordinates": [-77.6163177
, 43.1557999]}, "properties": {"Year": "2010", "Team Number": "3157", "City": "Rochester", "State": "New York", "Country": "USA", "Team Name": "3157: Eastridge Robotics"}},{ "type": "Feature", "geometry": {"type": "Point", "coordinates": [-99.6534729
, 19.2927208]}, "properties": {"Year": "2010", "Team Number": "3158", "City": "Toluca", "State": "Mexico", "Country": "Mexico", "Team Name": "3158: TECBOT"}},{ "type": "Feature", "geometry": {"type": "Point", "coordinates": [-94.7711029
, 36.5934296]}, "properties": {"Year": "2010", "Team Number": "3160", "City": "Grove", "State": "Oklahoma", "Country": "USA", "Team Name": "3160: FROG:  FIRST Robotics Organization of Grove"}},{ "type": "Feature", "geometry": {"type": "Point", "coordinates": [-79.626503
, 43.4813995]}, "properties": {"Year": "2010", "Team Number": "3161", "City": "Oakville", "State": "Ontario", "Country": "Canada", "Team Name": "3161: Tronic Titans"}},{ "type": "Feature", "geometry": {"type": "Point", "coordinates": [-95.9851379
, 35.4398193]}, "properties": {"Year": "2010", "Team Number": "3163", "City": "Henryetta", "State": "Oklahoma", "Country": "USA", "Team Name": "3163: ROARBOTS"}},{ "type": "Feature", "geometry": {"type": "Point", "coordinates": [-82.4592667
, 27.9465294]}, "properties": {"Year": "2010", "Team Number": "3164", "City": "Tampa", "State": "Florida", "Country": "USA", "Team Name": "3164: Stealth Tigers"}},{ "type": "Feature", "geometry": {"type": "Point", "coordinates": [-111.8954697
, 40.5701294]}, "properties": {"Year": "2010", "Team Number": "3166", "City": "Sandy", "State": "Utah", "Country": "USA", "Team Name": "3166: First Year Ravens"}},{ "type": "Feature", "geometry": {"type": "Point", "coordinates": [-75.1624527
, 39.9522781]}, "properties": {"Year": "2010", "Team Number": "3167", "City": "Philadelphia", "State": "Pennsylvania", "Country": "USA", "Team Name": "3167: Mechanical Misfits"}},{ "type": "Feature", "geometry": {"type": "Point", "coordinates": [-76.5889511
, 36.7311516]}, "properties": {"Year": "2010", "Team Number": "3168", "City": "Suffolk", "State": "Virginia", "Country": "USA", "Team Name": "3168: Warriors"}},{ "type": "Feature", "geometry": {"type": "Point", "coordinates": [-72.6414566
, 40.8096085]}, "properties": {"Year": "2010", "Team Number": "3171", "City": "Westhampton Beach", "State": "New York", "Country": "USA", "Team Name": "3171: HURRICANES"}},{ "type": "Feature", "geometry": {"type": "Point", "coordinates": [-97.6097031
, 38.8405418]}, "properties": {"Year": "2010", "Team Number": "3172", "City": "Salina", "State": "Kansas", "Country": "USA", "Team Name": "3172: HorsePOWER"}},{ "type": "Feature", "geometry": {"type": "Point", "coordinates": [-77.6163177
, 43.1557999]}, "properties": {"Year": "2010", "Team Number": "3173", "City": "Rochester", "State": "New York", "Country": "USA", "Team Name": "3173: IgKnighters"}},{ "type": "Feature", "geometry": {"type": "Point", "coordinates": [-82.9091187
, 42.4324303]}, "properties": {"Year": "2010", "Team Number": "3175", "City": "Grosse Pointe Woods", "State": "Michigan", "Country": "USA", "Team Name": "3175: Knight Vision"}},{ "type": "Feature", "geometry": {"type": "Point", "coordinates": [-86.3971634
, 39.843071]}, "properties": {"Year": "2010", "Team Number": "3176", "City": "Brownsburg", "State": "Indiana", "Country": "USA", "Team Name": "3176: Purple Precision"}},{ "type": "Feature", "geometry": {"type": "Point", "coordinates": [-95.2720871
, 36.4367485]}, "properties": {"Year": "2010", "Team Number": "3179", "City": "Adair", "State": "Oklahoma", "Country": "USA", "Team Name": "3179: The A.N.T."}},{ "type": "Feature", "geometry": {"type": "Point", "coordinates": [-86.1581421
, 39.4191818]}, "properties": {"Year": "2010", "Team Number": "3180", "City": "Trafalgar", "State": "Indiana", "Country": "USA", "Team Name": "3180: Blaise of Glory"}},{ "type": "Feature", "geometry": {"type": "Point", "coordinates": [-77.5166626
, 43.0913315]}, "properties": {"Year": "2010", "Team Number": "3181", "City": "Pittsford", "State": "New York", "Country": "USA", "Team Name": "3181: Pittsford Panthers"}},{ "type": "Feature", "geometry": {"type": "Point", "coordinates": [-72.7444305
, 41.75877]}, "properties": {"Year": "2010", "Team Number": "3182", "City": "West Hartford", "State": "Connecticut", "Country": "USA", "Team Name": "3182: Athena's Warriors"}},{ "type": "Feature", "geometry": {"type": "Point", "coordinates": [-93.2747726
, 44.7658501]}, "properties": {"Year": "2010", "Team Number": "3184", "City": "Burnsville", "State": "Minnesota", "Country": "USA", "Team Name": "3184: Blaze Robotics"}},{ "type": "Feature", "geometry": {"type": "Point", "coordinates": [-112.075798
, 33.4482498]}, "properties": {"Year": "2010", "Team Number": "3187", "City": "Phoenix", "State": "Arizona", "Country": "USA", "Team Name": "3187: Titans"}},{ "type": "Feature", "geometry": {"type": "Point", "coordinates": [-120.8035812
, 38.7278099]}, "properties": {"Year": "2010", "Team Number": "3189", "City": "Placerville", "State": "California", "Country": "USA", "Team Name": "3189: Circuit Breakers"}},{ "type": "Feature", "geometry": {"type": "Point", "coordinates": [-122.7657776
, 45.4250793]}, "properties": {"Year": "2010", "Team Number": "3192", "City": "Tigard", "State": "Oregon", "Country": "USA", "Team Name": "3192: Tiger Bytes"}},{ "type": "Feature", "geometry": {"type": "Point", "coordinates": [-80.7636185
, 41.0974998]}, "properties": {"Year": "2010", "Team Number": "3193", "City": "Austintown", "State": "Ohio", "Country": "USA", "Team Name": "3193: Falco Tech"}},{ "type": "Feature", "geometry": {"type": "Point", "coordinates": [-80.8146896
, 35.5825195]}, "properties": {"Year": "2010", "Team Number": "3196", "City": "Mooresville", "State": "North Carolina", "Country": "USA", "Team Name": "3196: Team SPORK"}},{ "type": "Feature", "geometry": {"type": "Point", "coordinates": [-87.9883499
, 43.2986183]}, "properties": {"Year": "2010", "Team Number": "3197", "City": "Cedarburg", "State": "Wisconsin", "Country": "USA", "Team Name": "3197: HexHounds"}},{ "type": "Feature", "geometry": {"type": "Point", "coordinates": [-104.8988419
, 39.5951309]}, "properties": {"Year": "2010", "Team Number": "3200", "City": "Centennial", "State": "Colorado", "Country": "USA", "Team Name": "3200: Raptacon"}},{ "type": "Feature", "geometry": {"type": "Point", "coordinates": [-84.5626373
, 39.4000816]}, "properties": {"Year": "2010", "Team Number": "3201", "City": "Hamilton", "State": "Ohio", "Country": "USA", "Team Name": "3201: Ross Rambotics"}},{ "type": "Feature", "geometry": {"type": "Point", "coordinates": [-93.0933228
, 44.943821]}, "properties": {"Year": "2010", "Team Number": "3202", "City": "St. Paul", "State": "Minnesota", "Country": "USA", "Team Name": "3202: KnightBots"}},{ "type": "Feature", "geometry": {"type": "Point", "coordinates": [-73.7668152
, 40.7241325]}, "properties": {"Year": "2010", "Team Number": "3204", "City": "Jamaica Estates", "State": "New York", "Country": "USA", "Team Name": "3204: Steampunk Penguins"}},{ "type": "Feature", "geometry": {"type": "Point", "coordinates": [-71.3490524
, 42.46101]}, "properties": {"Year": "2010", "Team Number": "3205", "City": "Concord", "State": "Massachusetts", "Country": "USA", "Team Name": "3205: Patriots"}},{ "type": "Feature", "geometry": {"type": "Point", "coordinates": [-92.9406128
, 44.9198685]}, "properties": {"Year": "2010", "Team Number": "3206", "City": "Woodbury", "State": "Minnesota", "Country": "USA", "Team Name": "3206: Royal T-Wrecks"}},{ "type": "Feature", "geometry": {"type": "Point", "coordinates": [34.8669205
, 30.8427124]}, "properties": {"Year": "2010", "Team Number": "3211", "City": "Yeruham", "State": "HaDarom (Southern)", "Country": "Israel", "Team Name": "3211: The Y Team"}},{ "type": "Feature", "geometry": {"type": "Point", "coordinates": [-95.5323029
, 44.8096008]}, "properties": {"Year": "2010", "Team Number": "3212", "City": "Granite Falls", "State": "Minnesota", "Country": "USA", "Team Name": "3212: YME Stingbots"}},{ "type": "Feature", "geometry": {"type": "Point", "coordinates": [-79.7947006
, 36.0689888]}, "properties": {"Year": "2010", "Team Number": "3215", "City": "Greensboro", "State": "North Carolina", "Country": "USA", "Team Name": "3215: Apollo"}},{ "type": "Feature", "geometry": {"type": "Point", "coordinates": [-113.9962311
, 46.8727798]}, "properties": {"Year": "2010", "Team Number": "3216", "City": "Missoula", "State": "Montana", "Country": "USA", "Team Name": "3216: MR T"}},{ "type": "Feature", "geometry": {"type": "Point", "coordinates": [-122.170639
, 47.1917381]}, "properties": {"Year": "2010", "Team Number": "3218", "City": "Bonney Lake", "State": "Washington", "Country": "USA", "Team Name": "3218: Panther Robotics"}},{ "type": "Feature", "geometry": {"type": "Point", "coordinates": [-122.2304077
, 47.3073997]}, "properties": {"Year": "2010", "Team Number": "3219", "City": "Auburn", "State": "Washington", "Country": "USA", "Team Name": "3219: TREAD"}},{ "type": "Feature", "geometry": {"type": "Point", "coordinates": [-117.3803406
, 47.4290886]}, "properties": {"Year": "2010", "Team Number": "3220", "City": "Spangle", "State": "Washington", "Country": "USA", "Team Name": "3220: Mechanics of Mayhem"}},{ "type": "Feature", "geometry": {"type": "Point", "coordinates": [-122.2374191
, 47.3802795]}, "properties": {"Year": "2010", "Team Number": "3221", "City": "Kent", "State": "Washington", "Country": "USA", "Team Name": "3221: KM Royals"}},{ "type": "Feature", "geometry": {"type": "Point", "coordinates": [-122.6929932
, 47.6514893]}, "properties": {"Year": "2010", "Team Number": "3223", "City": "Silverdale", "State": "Washington", "Country": "USA", "Team Name": "3223: Retrobotics"}},{ "type": "Feature", "geometry": {"type": "Point", "coordinates": [-111.9578934
, 40.6941986]}, "properties": {"Year": "2010", "Team Number": "3225", "City": "West Valley City", "State": "Utah", "Country": "USA", "Team Name": "3225: Wolverine Robotics"}},{ "type": "Feature", "geometry": {"type": "Point", "coordinates": [-78.83358
, 35.6521988]}, "properties": {"Year": "2010", "Team Number": "3229", "City": "Holly Springs", "State": "North Carolina", "Country": "USA", "Team Name": "3229: Hawktimus Prime"}},{ "type": "Feature", "geometry": {"type": "Point", "coordinates": [-111.8882217
, 40.7603111]}, "properties": {"Year": "2010", "Team Number": "3230", "City": "Salt Lake City", "State": "Utah", "Country": "USA", "Team Name": "3230: PrototypeX"}},{ "type": "Feature", "geometry": {"type": "Point", "coordinates": [-80.6033096
, 28.1723404]}, "properties": {"Year": "2010", "Team Number": "3233", "City": "Satellite Beach", "State": "Florida", "Country": "USA", "Team Name": "3233: Bots of the Round Table"}},{ "type": "Feature", "geometry": {"type": "Point", "coordinates": [-85.336853
, 42.9346695]}, "properties": {"Year": "2010", "Team Number": "3234", "City": "Lowell", "State": "Michigan", "Country": "USA", "Team Name": "3234: Red Arrows"}},{ "type": "Feature", "geometry": {"type": "Point", "coordinates": [-71.3810577
, 42.0800285]}, "properties": {"Year": "2010", "Team Number": "3236", "City": "Franklin", "State": "Massachusetts", "Country": "USA", "Team Name": "3236: TRIFORCE"}},{ "type": "Feature", "geometry": {"type": "Point", "coordinates": [-122.4102173
, 47.0648994]}, "properties": {"Year": "2010", "Team Number": "3237", "City": "Spanaway", "State": "Washington", "Country": "USA", "Team Name": "3237: Bionic Braves"}},{ "type": "Feature", "geometry": {"type": "Point", "coordinates": [-122.6117325
, 48.5174789]}, "properties": {"Year": "2010", "Team Number": "3238", "City": "Anacortes", "State": "Washington", "Country": "USA", "Team Name": "3238: Cyborg Ferrets"}},{ "type": "Feature", "geometry": {"type": "Point", "coordinates": [-111.9610214
, 41.0659294]}, "properties": {"Year": "2010", "Team Number": "3239", "City": "Layton", "State": "Utah", "Country": "USA", "Team Name": "3239: Birds of Prey"}},{ "type": "Feature", "geometry": {"type": "Point", "coordinates": [-98.4946136
, 29.4245796]}, "properties": {"Year": "2010", "Team Number": "3240", "City": "San Antonio", "State": "Texas", "Country": "USA", "Team Name": "3240: Team Orion"}},{ "type": "Feature", "geometry": {"type": "Point", "coordinates": [-111.9704819
, 41.2223587]}, "properties": {"Year": "2010", "Team Number": "3241", "City": "Ogden", "State": "Utah", "Country": "USA", "Team Name": "3241: Davinci Dragon Army"}},{ "type": "Feature", "geometry": {"type": "Point", "coordinates": [-82.1403885
, 29.1875191]}, "properties": {"Year": "2010", "Team Number": "3242", "City": "Ocala", "State": "Florida", "Country": "USA", "Team Name": "3242: ILLUMICATS"}},{ "type": "Feature", "geometry": {"type": "Point", "coordinates": [-111.8882217
, 40.7603111]}, "properties": {"Year": "2010", "Team Number": "3243", "City": "Salt Lake City", "State": "Utah", "Country": "USA", "Team Name": "3243: Amperes"}},{ "type": "Feature", "geometry": {"type": "Point", "coordinates": [-94.1343994
, 45.5542984]}, "properties": {"Year": "2010", "Team Number": "3244", "City": "St. Cloud", "State": "Minnesota", "Country": "USA", "Team Name": "3244: Granite City Gear Heads"}},{ "type": "Feature", "geometry": {"type": "Point", "coordinates": [-111.8954697
, 40.5701294]}, "properties": {"Year": "2010", "Team Number": "3245", "City": "Sandy", "State": "Utah", "Country": "USA", "Team Name": "3245: Ravens"}},{ "type": "Feature", "geometry": {"type": "Point", "coordinates": [-96.9248428
, 35.3320007]}, "properties": {"Year": "2010", "Team Number": "3247", "City": "Shawnee", "State": "Oklahoma", "Country": "USA", "Team Name": "3247: Robopack"}},{ "type": "Feature", "geometry": {"type": "Point", "coordinates": [-121.4908981
, 38.5793304]}, "properties": {"Year": "2010", "Team Number": "3250", "City": "Sacramento", "State": "California", "Country": "USA", "Team Name": "3250: Kennedy Robotics"}},{ "type": "Feature", "geometry": {"type": "Point", "coordinates": [-113.8966217
, 45.1766701]}, "properties": {"Year": "2010", "Team Number": "3251", "City": "Salmon", "State": "Idaho", "Country": "USA", "Team Name": "3251: Savage Pride"}},{ "type": "Feature", "geometry": {"type": "Point", "coordinates": [-117.0821686
, 33.1231613]}, "properties": {"Year": "2010", "Team Number": "3255", "City": "Escondido", "State": "California", "Country": "USA", "Team Name": "3255: Super NURDs"}},{ "type": "Feature", "geometry": {"type": "Point", "coordinates": [-121.8855667
, 37.3385811]}, "properties": {"Year": "2010", "Team Number": "3256", "City": "San Jose", "State": "California", "Country": "USA", "Team Name": "3256: WarriorBorgs"}},{ "type": "Feature", "geometry": {"type": "Point", "coordinates": [-121.2928085
, 38.8911591]}, "properties": {"Year": "2010", "Team Number": "3257", "City": "Lincoln", "State": "California", "Country": "USA", "Team Name": "3257: Vortechs"}},{ "type": "Feature", "geometry": {"type": "Point", "coordinates": [-79.8688126
, 36.6899605]}, "properties": {"Year": "2010", "Team Number": "3258", "City": "Martinsville", "State": "Virginia", "Country": "USA", "Team Name": "3258: MADawgs"}},{ "type": "Feature", "geometry": {"type": "Point", "coordinates": [-84.6008377
, 37.093399]}, "properties": {"Year": "2010", "Team Number": "3259", "City": "Somerset", "State": "Kentucky", "Country": "USA", "Team Name": "3259: Thoroughbots"}},{ "type": "Feature", "geometry": {"type": "Point", "coordinates": [-79.997467
, 40.4383392]}, "properties": {"Year": "2010", "Team Number": "3260", "City": "Pittsburgh", "State": "Pennsylvania", "Country": "USA", "Team Name": "3260: SHARP"}},{ "type": "Feature", "geometry": {"type": "Point", "coordinates": [-84.6843796
, 33.8601303]}, "properties": {"Year": "2010", "Team Number": "3265", "City": "Powder Springs", "State": "Georgia", "Country": "USA", "Team Name": "3265: Techno Tribe"}},{ "type": "Feature", "geometry": {"type": "Point", "coordinates": [-84.6364899
, 39.7449684]}, "properties": {"Year": "2010", "Team Number": "3266", "City": "Eaton", "State": "Ohio", "Country": "USA", "Team Name": "3266: Robots-R-Us"}},{ "type": "Feature", "geometry": {"type": "Point", "coordinates": [-91.2689972
, 47.2934418]}, "properties": {"Year": "2010", "Team Number": "3267", "City": "Silver Bay", "State": "Minnesota", "Country": "USA", "Team Name": "3267: Mariner Robotics"}},{ "type": "Feature", "geometry": {"type": "Point", "coordinates": [-122.2436905
, 47.7587585]}, "properties": {"Year": "2010", "Team Number": "3268", "City": "Kenmore", "State": "Washington", "Country": "USA", "Team Name": "3268: Vahallabots"}},{ "type": "Feature", "geometry": {"type": "Point", "coordinates": [-78.8690414
, 38.4515305]}, "properties": {"Year": "2010", "Team Number": "3274", "City": "Harrisonburg", "State": "Virginia", "Country": "USA", "Team Name": "3274: Rocktown Robotics"}},{ "type": "Feature", "geometry": {"type": "Point", "coordinates": [-94.61203
, 47.3824005]}, "properties": {"Year": "2010", "Team Number": "3275", "City": "Cass Lake", "State": "Minnesota", "Country": "USA", "Team Name": "3275: The Regulators"}},{ "type": "Feature", "geometry": {"type": "Point", "coordinates": [-94.9441986
, 45.3011017]}, "properties": {"Year": "2010", "Team Number": "3276", "City": "New London", "State": "Minnesota", "Country": "USA", "Team Name": "3276: TOOLCATS"}},{ "type": "Feature", "geometry": {"type": "Point", "coordinates": [-96.1807709
, 48.1191292]}, "properties": {"Year": "2010", "Team Number": "3277", "City": "Thief River Falls", "State": "Minnesota", "Country": "USA", "Team Name": "3277: ProDigi"}},{ "type": "Feature", "geometry": {"type": "Point", "coordinates": [-95.8452377
, 46.8194809]}, "properties": {"Year": "2010", "Team Number": "3278", "City": "Detroit Lakes", "State": "Minnesota", "Country": "USA", "Team Name": "3278: QWERTY Robotics"}},{ "type": "Feature", "geometry": {"type": "Point", "coordinates": [-96.7954025
, 32.7781487]}, "properties": {"Year": "2010", "Team Number": "3282", "City": "Dallas", "State": "Texas", "Country": "USA", "Team Name": "3282: Dallas Robo Tigers"}},{ "type": "Feature", "geometry": {"type": "Point", "coordinates": [-77.2785721
, 39.2380714]}, "properties": {"Year": "2010", "Team Number": "3283", "City": "Clarksburg", "State": "Maryland", "Country": "USA", "Team Name": "3283: 3283 Coyote Robotix"}},{ "type": "Feature", "geometry": {"type": "Point", "coordinates": [-92.7443771
, 38.0080185]}, "properties": {"Year": "2010", "Team Number": "3284", "City": "Camdenton", "State": "Missouri", "Country": "USA", "Team Name": "3284: Camdenton 4H LASER"}},{ "type": "Feature", "geometry": {"type": "Point", "coordinates": [-110.1128998
, 42.538269]}, "properties": {"Year": "2010", "Team Number": "3288", "City": "Big Piney", "State": "Wyoming", "Country": "USA", "Team Name": "3288: Punchers"}},{ "type": "Feature", "geometry": {"type": "Point", "coordinates": [-111.866272
, 40.5241394]}, "properties": {"Year": "2010", "Team Number": "3289", "City": "Draper", "State": "Utah", "Country": "USA", "Team Name": "3289: Soaring Eagle"}},{ "type": "Feature", "geometry": {"type": "Point", "coordinates": [-94.6039124
, 48.712471]}, "properties": {"Year": "2010", "Team Number": "3290", "City": "Baudette", "State": "Minnesota", "Country": "USA", "Team Name": "3290: Robo Bears LOWbotics"}},{ "type": "Feature", "geometry": {"type": "Point", "coordinates": [-93.3485718
, 45.1088905]}, "properties": {"Year": "2010", "Team Number": "3291", "City": "Brooklyn Park", "State": "Minnesota", "Country": "USA", "Team Name": "3291: Au Pirates"}},{ "type": "Feature", "geometry": {"type": "Point", "coordinates": [-95.6008377
, 45.3149796]}, "properties": {"Year": "2010", "Team Number": "3292", "City": "Benson", "State": "Minnesota", "Country": "USA", "Team Name": "3292: The Aluminum Falcon"}},{ "type": "Feature", "geometry": {"type": "Point", "coordinates": [-96.0723877
, 46.2786217]}, "properties": {"Year": "2010", "Team Number": "3293", "City": "Fergus Falls", "State": "Minnesota", "Country": "USA", "Team Name": "3293: OtterBots"}},{ "type": "Feature", "geometry": {"type": "Point", "coordinates": [-94.4060669
, 46.7189484]}, "properties": {"Year": "2010", "Team Number": "3294", "City": "Pine River", "State": "Minnesota", "Country": "USA", "Team Name": "3294: Backwoods Engineers"}},{ "type": "Feature", "geometry": {"type": "Point", "coordinates": [-117.3738785
, 33.9816284]}, "properties": {"Year": "2010", "Team Number": "3295", "City": "Riverside", "State": "California", "Country": "USA", "Team Name": "3295: Poly Techs"}},{ "type": "Feature", "geometry": {"type": "Point", "coordinates": [-95.5725021
, 46.5943985]}, "properties": {"Year": "2010", "Team Number": "3297", "City": "Perham", "State": "Minnesota", "Country": "USA", "Team Name": "3297: Full Metal Jackets"}},{ "type": "Feature", "geometry": {"type": "Point", "coordinates": [-96.3171005
, 43.9941292]}, "properties": {"Year": "2010", "Team Number": "3298", "City": "Pipestone", "State": "Minnesota", "Country": "USA", "Team Name": "3298: ArrowBots"}},{ "type": "Feature", "geometry": {"type": "Point", "coordinates": [-93.6018219
, 44.7871895]}, "properties": {"Year": "2010", "Team Number": "3299", "City": "Chaska", "State": "Minnesota", "Country": "USA", "Team Name": "3299: Warehouse Crew"}},{ "type": "Feature", "geometry": {"type": "Point", "coordinates": [-96.4381866
, 45.2977982]}, "properties": {"Year": "2010", "Team Number": "3300", "City": "Ortonville", "State": "Minnesota", "Country": "USA", "Team Name": "3300: Midwest WARRIORS"}},{ "type": "Feature", "geometry": {"type": "Point", "coordinates": [-83.1464996
, 42.5369606]}, "properties": {"Year": "2010", "Team Number": "3302", "City": "Clawson", "State": "Michigan", "Country": "USA", "Team Name": "3302: TurboTrojans"}},{ "type": "Feature", "geometry": {"type": "Point", "coordinates": [-119.7857285
, 36.7406807]}, "properties": {"Year": "2010", "Team Number": "3303", "City": "Fresno", "State": "California", "Country": "USA", "Team Name": "3303: Metallic Thunder"}},{ "type": "Feature", "geometry": {"type": "Point", "coordinates": [-106.4874878
, 31.7591591]}, "properties": {"Year": "2010", "Team Number": "3305", "City": "El Paso", "State": "Texas", "Country": "USA", "Team Name": "3305: Parkland Matador Robotics"}},{ "type": "Feature", "geometry": {"type": "Point", "coordinates": [-117.9157181
, 33.8327599]}, "properties": {"Year": "2010", "Team Number": "3309", "City": "Anaheim", "State": "California", "Country": "USA", "Team Name": "3309: Friarbots"}},{ "type": "Feature", "geometry": {"type": "Point", "coordinates": [-96.4751968
, 32.8365517]}, "properties": {"Year": "2010", "Team Number": "3310", "City": "Heath", "State": "Texas", "Country": "USA", "Team Name": "3310: Black Hawk Robotics"}},{ "type": "Feature", "geometry": {"type": "Point", "coordinates": [-95.3663406
, 45.889389]}, "properties": {"Year": "2010", "Team Number": "3313", "City": "Alexandria", "State": "Minnesota", "Country": "USA", "Team Name": "3313: Mechatronics"}},{ "type": "Feature", "geometry": {"type": "Point", "coordinates": [-74.1602478
, 40.8656311]}, "properties": {"Year": "2010", "Team Number": "3314", "City": "Clifton", "State": "New Jersey", "Country": "USA", "Team Name": "3314: Mechanical Mustangs"}},{ "type": "Feature", "geometry": {"type": "Point", "coordinates": [34.7901306
, 32.0852585]}, "properties": {"Year": "2010", "Team Number": "3316", "City": "Tel Aviv", "State": "Tel-Aviv", "Country": "Israel", "Team Name": "3316: D-Bug"}},{ "type": "Feature", "geometry": {"type": "Point", "coordinates": [-83.987999
, 33.9525795]}, "properties": {"Year": "2010", "Team Number": "3318", "City": "Lawrenceville", "State": "Georgia", "Country": "USA", "Team Name": "3318: RoboDragons"}},{ "type": "Feature", "geometry": {"type": "Point", "coordinates": [-86.5849762
, 34.7291298]}, "properties": {"Year": "2010", "Team Number": "3319", "City": "Huntsville", "State": "Alabama", "Country": "USA", "Team Name": "3319: G.R.E.A.T. (Grissom Robotics Engineering Applications Team)"}},{ "type": "Feature", "geometry": {"type": "Point", "coordinates": [-111.1007309
, 33.2890015]}, "properties": {"Year": "2010", "Team Number": "3321", "City": "Superior", "State": "Arizona", "Country": "USA", "Team Name": "3321: Superior Robotics"}},{ "type": "Feature", "geometry": {"type": "Point", "coordinates": [-83.7484665
, 42.2821007]}, "properties": {"Year": "2010", "Team Number": "3322", "City": "Ann Arbor", "State": "Michigan", "Country": "USA", "Team Name": "3322: Eagle Imperium"}},{ "type": "Feature", "geometry": {"type": "Point", "coordinates": [-71.4798813
, 42.8445015]}, "properties": {"Year": "2010", "Team Number": "3323", "City": "Litchfield", "State": "New Hampshire", "Country": "USA", "Team Name": "3323: Potential Energy"}},{ "type": "Feature", "geometry": {"type": "Point", "coordinates": [-83.0027466
, 39.9619904]}, "properties": {"Year": "2010", "Team Number": "3324", "City": "Columbus", "State": "Ohio", "Country": "USA", "Team Name": "3324: The Metrobots"}},{ "type": "Feature", "geometry": {"type": "Point", "coordinates": [-118.391571
, 34.1942291]}, "properties": {"Year": "2010", "Team Number": "3328", "City": "North Hollywood", "State": "California", "Country": "USA", "Team Name": "3328: NohoRobo"}},{ "type": "Feature", "geometry": {"type": "Point", "coordinates": [-81.6903229
, 30.8005695]}, "properties": {"Year": "2010", "Team Number": "3329", "City": "Kingsland", "State": "Georgia", "Country": "USA", "Team Name": "3329: Wildbots"}},{ "type": "Feature", "geometry": {"type": "Point", "coordinates": [-90.4818268
, 38.7829514]}, "properties": {"Year": "2010", "Team Number": "3330", "City": "St. Charles", "State": "Missouri", "Country": "USA", "Team Name": "3330: System of the Corn"}},{ "type": "Feature", "geometry": {"type": "Point", "coordinates": [-79.0392685
, 35.9274521]}, "properties": {"Year": "2010", "Team Number": "3331", "City": "Chapel Hill", "State": "North Carolina", "Country": "USA", "Team Name": "3331: Tarheel Robots"}},{ "type": "Feature", "geometry": {"type": "Point", "coordinates": [-95.6779175
, 29.97579]}, "properties": {"Year": "2010", "Team Number": "3335", "City": "Cypress", "State": "Texas", "Country": "USA", "Team Name": "3335: Cy-Borgs"}},{ "type": "Feature", "geometry": {"type": "Point", "coordinates": [-77.1287079
, 34.6925011]}, "properties": {"Year": "2010", "Team Number": "3336", "City": "Swansboro", "State": "North Carolina", "Country": "USA", "Team Name": "3336: Zimanators"}},{ "type": "Feature", "geometry": {"type": "Point", "coordinates": [-91.1869888
, 30.4433403]}, "properties": {"Year": "2010", "Team Number": "3337", "City": "Baton Rouge", "State": "Louisiana", "Country": "USA", "Team Name": "3337: Panthrobotics"}},{ "type": "Feature", "geometry": {"type": "Point", "coordinates": [34.9351006
, 32.3167]}, "properties": {"Year": "2010", "Team Number": "3339", "City": "Kfar Yona", "State": "HaMerkaz (Central)", "Country": "Israel", "Team Name": "3339: BumbleB"}},{ "type": "Feature", "geometry": {"type": "Point", "coordinates": [-74.0246887
, 40.7738686]}, "properties": {"Year": "2010", "Team Number": "3340", "City": "Union City", "State": "New Jersey", "Country": "USA", "Team Name": "3340: UCHS MagneGeeks"}},{ "type": "Feature", "geometry": {"type": "Point", "coordinates": [-117.1617203
, 32.7156906]}, "properties": {"Year": "2010", "Team Number": "3341", "City": "San Diego", "State": "California", "Country": "USA", "Team Name": "3341: Option 16"}},{ "type": "Feature", "geometry": {"type": "Point", "coordinates": [-84.4545593
, 33.4486504]}, "properties": {"Year": "2010", "Team Number": "3344", "City": "Fayetteville", "State": "Georgia", "Country": "USA", "Team Name": "3344: Robocopz"}},{ "type": "Feature", "geometry": {"type": "Point", "coordinates": [-98.4946136
, 29.4245796]}, "properties": {"Year": "2010", "Team Number": "3345", "City": "San Antonio", "State": "Texas", "Country": "USA", "Team Name": "3345: Metal Jackets"}},{ "type": "Feature", "geometry": {"type": "Point", "coordinates": [-94.0482483
, 33.4255791]}, "properties": {"Year": "2010", "Team Number": "3350", "City": "Texarkana", "State": "Texas", "Country": "USA", "Team Name": "3350: T-BOTS"}},{ "type": "Feature", "geometry": {"type": "Point", "coordinates": [-88.8390732
, 42.256691]}, "properties": {"Year": "2010", "Team Number": "3352", "City": "Belvidere", "State": "Illinois", "Country": "USA", "Team Name": "3352: Flaming Monkeys 4-H Robotics Club"}},{ "type": "Feature", "geometry": {"type": "Point", "coordinates": [-100.3960037
, 20.5921001]}, "properties": {"Year": "2010", "Team Number": "3354", "City": "Queretaro", "State": "QuerTtaro", "Country": "Mexico", "Team Name": "3354: TecDroid"}},{ "type": "Feature", "geometry": {"type": "Point", "coordinates": [-97.1077194
, 32.7355995]}, "properties": {"Year": "2010", "Team Number": "3355", "City": "Arlington", "State": "Texas", "Country": "USA", "Team Name": "3355: Purple Vipers"}},{ "type": "Feature", "geometry": {"type": "Point", "coordinates": [-81.6907196
, 41.5047493]}, "properties": {"Year": "2010", "Team Number": "3356", "City": "Cleveland", "State": "Ohio", "Country": "USA", "Team Name": "3356: MC2STEM Maniacs"}},{ "type": "Feature", "geometry": {"type": "Point", "coordinates": [-85.6711807
, 42.9664116]}, "properties": {"Year": "2010", "Team Number": "3357", "City": "Grand Rapids", "State": "Michigan", "Country": "USA", "Team Name": "3357: COMETS"}},{ "type": "Feature", "geometry": {"type": "Point", "coordinates": [-76.2977066
, 36.8326416]}, "properties": {"Year": "2010", "Team Number": "3359", "City": "Portsmouth", "State": "Virginia", "Country": "USA", "Team Name": "3359: Royal Robotics"}},{ "type": "Feature", "geometry": {"type": "Point", "coordinates": [-71.9470978
, 45.4021988]}, "properties": {"Year": "2010", "Team Number": "3360", "City": "Sherbrooke", "State": "QuTbec", "Country": "Canada", "Team Name": "3360: Hyperion"}},{ "type": "Feature", "geometry": {"type": "Point", "coordinates": [-78.9701614
, 38.0995903]}, "properties": {"Year": "2010", "Team Number": "3361", "City": "Fishersville", "State": "Virginia", "Country": "USA", "Team Name": "3361: Governators"}},{ "type": "Feature", "geometry": {"type": "Point", "coordinates": [-100.5389786
, 32.4457016]}, "properties": {"Year": "2010", "Team Number": "3366", "City": "Roscoe", "State": "Texas", "Country": "USA", "Team Name": "3366: Plowbots"}},{ "type": "Feature", "geometry": {"type": "Point", "coordinates": [-95.8404922
, 47.0965309]}, "properties": {"Year": "2010", "Team Number": "3367", "City": "White Earth", "State": "Minnesota", "Country": "USA", "Team Name": "3367: col"}},{ "type": "Feature", "geometry": {"type": "Point", "coordinates": [17.7823009
, 43.3474007]}, "properties": {"Year": "2010", "Team Number": "3368", "City": "Mostar", "State": "Hercegova?ko-neretvanski kanton", "Country": "Bosnia-Herzegovina", "Team Name": "3368: Spirit of the United Neretva"}},{ "type": "Feature", "geometry": {"type": "Point", "coordinates": [-96.9554977
, 32.8135109]}, "properties": {"Year": "2010", "Team Number": "3370", "City": "Irving", "State": "Texas", "Country": "USA", "Team Name": "3370: Aftershock"}},{ "type": "Feature", "geometry": {"type": "Point", "coordinates": [-77.7955093
, 38.7136192]}, "properties": {"Year": "2010", "Team Number": "3373", "City": "Warrenton", "State": "Virginia", "Country": "USA", "Team Name": "3373: Team RoboHawk"}},{ "type": "Feature", "geometry": {"type": "Point", "coordinates": [-110.7623215
, 43.4797096]}, "properties": {"Year": "2010", "Team Number": "3374", "City": "Jackson", "State": "Wyoming", "Country": "USA", "Team Name": "3374: RoboBroncs"}},{ "type": "Feature", "geometry": {"type": "Point", "coordinates": [-73.5498962
, 45.5172005]}, "properties": {"Year": "2010", "Team Number": "3379", "City": "MontrTal", "State": "QuTbec", "Country": "Canada", "Team Name": "3379: MTcani-Wolf"}},{ "type": "Feature", "geometry": {"type": "Point", "coordinates": [-87.8819504
, 44.0688705]}, "properties": {"Year": "2010", "Team Number": "3381", "City": "Valders", "State": "Wisconsin", "Country": "USA", "Team Name": "3381: Manitowoc County Droid Rage 3381"}},{ "type": "Feature", "geometry": {"type": "Point", "coordinates": [-73.5498962
, 45.5172005]}, "properties": {"Year": "2010", "Team Number": "3382", "City": "MontrTal", "State": "QuTbec", "Country": "Canada", "Team Name": "3382: Les BTliers"}},{ "type": "Feature", "geometry": {"type": "Point", "coordinates": [-73.5498962
, 45.5172005]}, "properties": {"Year": "2010", "Team Number": "3386", "City": "MontrTal", "State": "QuTbec", "Country": "Canada", "Team Name": "3386: Tornades"}},{ "type": "Feature", "geometry": {"type": "Point", "coordinates": [-73.5498962
, 45.5172005]}, "properties": {"Year": "2010", "Team Number": "3387", "City": "MontrTal", "State": "QuTbec", "Country": "Canada", "Team Name": "3387: Les Aigles d'Or"}},{ "type": "Feature", "geometry": {"type": "Point", "coordinates": [34.69347
, 31.7864208]}, "properties": {"Year": "2010", "Team Number": "3388", "City": "Gan Yavne", "State": "HaMerkaz (Central)", "Country": "Israel", "Team Name": "3388: Flash"}},{ "type": "Feature", "geometry": {"type": "Point", "coordinates": [-75.5953217
, 38.3657303]}, "properties": {"Year": "2010", "Team Number": "3389", "City": "Salisbury", "State": "Maryland", "Country": "USA", "Team Name": "3389: TEC Tigers"}},{ "type": "Feature", "geometry": {"type": "Point", "coordinates": [32.8605003
, 39.9429016]}, "properties": {"Year": "2010", "Team Number": "3390", "City": "Ankara", "State": "Ankara", "Country": "Turkey", "Team Name": "3390: ANATOLIAN EAGLEBOTS"}},{ "type": "Feature", "geometry": {"type": "Point", "coordinates": [-122.295639
, 47.1904411]}, "properties": {"Year": "2010", "Team Number": "3393", "City": "Puyallup", "State": "Washington", "Country": "USA", "Team Name": "3393: Horns of Havoc"}},{ "type": "Feature", "geometry": {"type": "Point", "coordinates": [-90.3101501
, 38.6564713]}, "properties": {"Year": "2010", "Team Number": "3397", "City": "University City", "State": "Missouri", "Country": "USA", "Team Name": "3397: Robolions"}},{ "type": "Feature", "geometry": {"type": "Point", "coordinates": [-83.0479965
, 42.3316803]}, "properties": {"Year": "2010", "Team Number": "3398", "City": "Detroit", "State": "Michigan", "Country": "USA", "Team Name": "3398: Crushing Crusaders"}},{ "type": "Feature", "geometry": {"type": "Point", "coordinates": [-81.5400925
, 35.915329]}, "properties": {"Year": "2010", "Team Number": "3402", "City": "Lenoir", "State": "North Carolina", "Country": "USA", "Team Name": "3402: ROBOMonkeys"}},{ "type": "Feature", "geometry": {"type": "Point", "coordinates": [-93.1582565
, 45.0791702]}, "properties": {"Year": "2010", "Team Number": "3407", "City": "Arden Hills", "State": "Minnesota", "Country": "USA", "Team Name": "3407: Mustybots"}},{ "type": "Feature", "geometry": {"type": "Point", "coordinates": [-118.2453232
, 34.0534897]}, "properties": {"Year": "2010", "Team Number": "3408", "City": "Los Angeles", "State": "California", "Country": "USA", "Team Name": "3408: Killa-Byte Cubs"}},{ "type": "Feature", "geometry": {"type": "Point", "coordinates": [-80.197731
, 25.7748108]}, "properties": {"Year": "2010", "Team Number": "3410", "City": "Miami", "State": "Florida", "Country": "USA", "Team Name": "3410: L.I.F.E."}},{ "type": "Feature", "geometry": {"type": "Point", "coordinates": [-83.3783188
, 42.4654808]}, "properties": {"Year": "2010", "Team Number": "3414", "City": "Farmington", "State": "Michigan", "Country": "USA", "Team Name": "3414: Hackbots"}},{ "type": "Feature", "geometry": {"type": "Point", "coordinates": [-97.7429886
, 30.2675896]}, "properties": {"Year": "2010", "Team Number": "3417", "City": "Austin", "State": "Texas", "Country": "USA", "Team Name": "3417: Mechatronics"}},{ "type": "Feature", "geometry": {"type": "Point", "coordinates": [-87.8119736
, 43.7286911]}, "properties": {"Year": "2010", "Team Number": "3418", "City": "Sheboygan Falls", "State": "Wisconsin", "Country": "USA", "Team Name": "3418: Robo Riot"}},{ "type": "Feature", "geometry": {"type": "Point", "coordinates": [-73.8317032
, 40.7820015]}, "properties": {"Year": "2010", "Team Number": "3419", "City": "New York", "State": "New York", "Country": "USA", "Team Name": "3419: RoHawks"}},