{ "type": "Feature", "geometry": {"type": "Point", "coordinates": [-122.8913574
, 47.0392303]}, "properties": {"Year": "2013", "Team Number": "4450", "City": "Olympia", "State": "Washington", "Country": "USA", "Team Name": "4450: Olympia Robotics Federation"}},{ "type": "Feature", "geometry": {"type": "Point", "coordinates": [-82.0148087
, 34.4993591]}, "properties": {"Year": "2013", "Team Number": "4451", "City": "Laurens", "State": "South Carolina", "Country": "USA", "Team Name": "4451: ROBOTZ Garage"}},{ "type": "Feature", "geometry": {"type": "Point", "coordinates": [-84.9642487
, 42.2749214]}, "properties": {"Year": "2013", "Team Number": "4453", "City": "Marshall", "State": "Michigan", "Country": "USA", "Team Name": "4453: The Red Hot Chili Bots"}},{ "type": "Feature", "geometry": {"type": "Point", "coordinates": [-75.1624527
, 39.9522781]}, "properties": {"Year": "2013", "Team Number": "4454", "City": "Philadelphia", "State": "Pennsylvania", "Country": "USA", "Team Name": "4454: Artisan Rockets"}},{ "type": "Feature", "geometry": {"type": "Point", "coordinates": [-93.7411499
, 38.7712212]}, "properties": {"Year": "2013", "Team Number": "4455", "City": "Warrensburg", "State": "Missouri", "Country": "USA", "Team Name": "4455: The Burger Bots"}},{ "type": "Feature", "geometry": {"type": "Point", "coordinates": [-77.0319595
, 38.8903694]}, "properties": {"Year": "2013", "Team Number": "4456", "City": "Washington", "State": "District of Columbia", "Country": "USA", "Team Name": "4456: Mech Cadets"}},{ "type": "Feature", "geometry": {"type": "Point", "coordinates": [-72.7889633
, 40.8000107]}, "properties": {"Year": "2013", "Team Number": "4458", "City": "Center Moriches", "State": "New York", "Country": "USA", "Team Name": "4458: Infernobotix"}},{ "type": "Feature", "geometry": {"type": "Point", "coordinates": [-84.6606598
, 33.7936897]}, "properties": {"Year": "2013", "Team Number": "4459", "City": "Lithia Springs", "State": "Georgia", "Country": "USA", "Team Name": "4459: LeoTechs"}},{ "type": "Feature", "geometry": {"type": "Point", "coordinates": [-122.3198929
, 47.4078102]}, "properties": {"Year": "2013", "Team Number": "4461", "City": "Des Moines", "State": "Washington", "Country": "USA", "Team Name": "4461: Ramen"}},{ "type": "Feature", "geometry": {"type": "Point", "coordinates": [-84.5161667
, 35.8722115]}, "properties": {"Year": "2013", "Team Number": "4462", "City": "Kingston", "State": "Tennessee", "Country": "USA", "Team Name": "4462: Full Metal Jackets"}},{ "type": "Feature", "geometry": {"type": "Point", "coordinates": [-76.8803101
, 39.0006714]}, "properties": {"Year": "2013", "Team Number": "4464", "City": "Greenbelt", "State": "Maryland", "Country": "USA", "Team Name": "4464: Team Illusion"}},{ "type": "Feature", "geometry": {"type": "Point", "coordinates": [-77.9961395
, 38.4733315]}, "properties": {"Year": "2013", "Team Number": "4466", "City": "Culpeper", "State": "Virginia", "Country": "USA", "Team Name": "4466: Robo Hamsters"}},{ "type": "Feature", "geometry": {"type": "Point", "coordinates": [-80.1848373
, 40.25914]}, "properties": {"Year": "2013", "Team Number": "4467", "City": "Canonsburg", "State": "Pennsylvania", "Country": "USA", "Team Name": "4467: Titanium Titans"}},{ "type": "Feature", "geometry": {"type": "Point", "coordinates": [-84.3911133
, 33.7483101]}, "properties": {"Year": "2013", "Team Number": "4468", "City": "Atlanta", "State": "Georgia", "Country": "USA", "Team Name": "4468: Fernbank LINKS"}},{ "type": "Feature", "geometry": {"type": "Point", "coordinates": [-122.2304077
, 47.3073997]}, "properties": {"Year": "2013", "Team Number": "4469", "City": "Auburn", "State": "Washington", "Country": "USA", "Team Name": "4469: R.A.I.D. (Raider Artificial Intelligence DIvision)"}},{ "type": "Feature", "geometry": {"type": "Point", "coordinates": [-117.8613968
, 33.8711205]}, "properties": {"Year": "2013", "Team Number": "4470", "City": "Placentia", "State": "California", "Country": "USA", "Team Name": "4470: TiGears"}},{ "type": "Feature", "geometry": {"type": "Point", "coordinates": [-80.16008
, 26.0104103]}, "properties": {"Year": "2013", "Team Number": "4471", "City": "Hollywood", "State": "Florida", "Country": "USA", "Team Name": "4471: SPARTRONS"}},{ "type": "Feature", "geometry": {"type": "Point", "coordinates": [-77.4711075
, 38.7512207]}, "properties": {"Year": "2013", "Team Number": "4472", "City": "Manassas", "State": "Virginia", "Country": "USA", "Team Name": "4472: SuperNOVA"}},{ "type": "Feature", "geometry": {"type": "Point", "coordinates": [-69.7708282
, 44.2435417]}, "properties": {"Year": "2013", "Team Number": "4473", "City": "Farmingdale", "State": "Maine", "Country": "USA", "Team Name": "4473: Delta Prime"}},{ "type": "Feature", "geometry": {"type": "Point", "coordinates": [-70.7319412
, 41.9936981]}, "properties": {"Year": "2013", "Team Number": "4474", "City": "Kingston", "State": "Massachusetts", "Country": "USA", "Team Name": "4474: Silver Circuit"}},{ "type": "Feature", "geometry": {"type": "Point", "coordinates": [-74.1742096
, 40.7319717]}, "properties": {"Year": "2013", "Team Number": "4475", "City": "Newark", "State": "New Jersey", "Country": "USA", "Team Name": "4475: Terrier Byte Bots"}},{ "type": "Feature", "geometry": {"type": "Point", "coordinates": [-76.479332
, 44.2315292]}, "properties": {"Year": "2013", "Team Number": "4476", "City": "Kingston", "State": "Ontario", "Country": "Canada", "Team Name": "4476: W.A.F.F.L.E.S."}},{ "type": "Feature", "geometry": {"type": "Point", "coordinates": [-94.5714569
, 45.8067398]}, "properties": {"Year": "2013", "Team Number": "4480", "City": "Upsala", "State": "Minnesota", "Country": "USA", "Team Name": "4480: UC-Botics"}},{ "type": "Feature", "geometry": {"type": "Point", "coordinates": [5.4896302
, 51.4483986]}, "properties": {"Year": "2013", "Team Number": "4481", "City": "Eindhoven", "State": "Noord-Brabant", "Country": "Netherlands", "Team Name": "4481: Team Rembrandts"}},{ "type": "Feature", "geometry": {"type": "Point", "coordinates": [-85.5885086
, 42.2915688]}, "properties": {"Year": "2013", "Team Number": "4482", "City": "Kalamazoo", "State": "Michigan", "Country": "USA", "Team Name": "4482: Intelligent Design [ID Robotics]"}},{ "type": "Feature", "geometry": {"type": "Point", "coordinates": [-86.5268021
, 39.7607803]}, "properties": {"Year": "2013", "Team Number": "4485", "City": "Danville", "State": "Indiana", "Country": "USA", "Team Name": "4485: Tribe Tech Robotics"}},{ "type": "Feature", "geometry": {"type": "Point", "coordinates": [-117.233963
, 33.2020302]}, "properties": {"Year": "2013", "Team Number": "4486", "City": "Vista", "State": "California", "Country": "USA", "Team Name": "4486: Blue Prints"}},{ "type": "Feature", "geometry": {"type": "Point", "coordinates": [-122.9905624
, 45.5227013]}, "properties": {"Year": "2013", "Team Number": "4488", "City": "Hillsboro", "State": "Oregon", "Country": "USA", "Team Name": "4488: Shockwave"}},{ "type": "Feature", "geometry": {"type": "Point", "coordinates": [-91.7401581
, 35.2508087]}, "properties": {"Year": "2013", "Team Number": "4490", "City": "Searcy", "State": "Arkansas", "Country": "USA", "Team Name": "4490: TechRaiders"}},{ "type": "Feature", "geometry": {"type": "Point", "coordinates": [-72.1439972
, 45.6645012]}, "properties": {"Year": "2013", "Team Number": "4491", "City": "Richmond", "State": "QuTbec", "Country": "Canada", "Team Name": "4491: Richmond Knights"}},{ "type": "Feature", "geometry": {"type": "Point", "coordinates": [-120.6662064
, 47.0513916]}, "properties": {"Year": "2013", "Team Number": "4495", "City": "Thorp", "State": "Washington", "Country": "USA", "Team Name": "4495: Tigers"}},{ "type": "Feature", "geometry": {"type": "Point", "coordinates": [-111.7897568
, 33.3290405]}, "properties": {"Year": "2013", "Team Number": "4496", "City": "Gilbert", "State": "Arizona", "Country": "USA", "Team Name": "4496: Sonoran Storm Robotics"}},{ "type": "Feature", "geometry": {"type": "Point", "coordinates": [-107.7969971
, 50.2755013]}, "properties": {"Year": "2013", "Team Number": "4497", "City": "Swift Current", "State": "Saskatchewan", "Country": "Canada", "Team Name": "4497: SKy-Net"}},{ "type": "Feature", "geometry": {"type": "Point", "coordinates": [-105.0762634
, 40.5814705]}, "properties": {"Year": "2013", "Team Number": "4499", "City": "Fort Collins", "State": "Colorado", "Country": "USA", "Team Name": "4499: The Highlanders"}},{ "type": "Feature", "geometry": {"type": "Point", "coordinates": [-90.3367462
, 38.6508408]}, "properties": {"Year": "2013", "Team Number": "4500", "City": "Clayton", "State": "Missouri", "Country": "USA", "Team Name": "4500: RoboHounds"}},{ "type": "Feature", "geometry": {"type": "Point", "coordinates": [-118.4922867
, 34.0115585]}, "properties": {"Year": "2013", "Team Number": "4501", "City": "Santa Monica", "State": "California", "Country": "USA", "Team Name": "4501: Humans"}},{ "type": "Feature", "geometry": {"type": "Point", "coordinates": [-83.9733963
, 35.7537918]}, "properties": {"Year": "2013", "Team Number": "4504", "City": "Maryville", "State": "Tennessee", "Country": "USA", "Team Name": "4504: B. C. Robotics"}},{ "type": "Feature", "geometry": {"type": "Point", "coordinates": [-76.7753906
, 39.41605]}, "properties": {"Year": "2013", "Team Number": "4505", "City": "Owings Mills", "State": "Maryland", "Country": "USA", "Team Name": "4505: McDonogh Eagle Robotics"}},{ "type": "Feature", "geometry": {"type": "Point", "coordinates": [-93.0239105
, 45.0064011]}, "properties": {"Year": "2013", "Team Number": "4506", "City": "Maplewood", "State": "Minnesota", "Country": "USA", "Team Name": "4506: PioNerds"}},{ "type": "Feature", "geometry": {"type": "Point", "coordinates": [-83.0479965
, 42.3316803]}, "properties": {"Year": "2013", "Team Number": "4507", "City": "Detroit", "State": "Michigan", "Country": "USA", "Team Name": "4507: TARminators"}},{ "type": "Feature", "geometry": {"type": "Point", "coordinates": [-73.581459
, 43.0995903]}, "properties": {"Year": "2013", "Team Number": "4508", "City": "Schuylerville", "State": "New York", "Country": "USA", "Team Name": "4508: Nuts and Bots"}},{ "type": "Feature", "geometry": {"type": "Point", "coordinates": [-93.4757996
, 45.0188103]}, "properties": {"Year": "2013", "Team Number": "4511", "City": "Plymouth", "State": "Minnesota", "Country": "USA", "Team Name": "4511: Power Amplified"}},{ "type": "Feature", "geometry": {"type": "Point", "coordinates": [-122.2059326
, 47.9765892]}, "properties": {"Year": "2013", "Team Number": "4512", "City": "Everett", "State": "Washington", "Country": "USA", "Team Name": "4512: BEARbots"}},{ "type": "Feature", "geometry": {"type": "Point", "coordinates": [-117.6826706
, 47.5723686]}, "properties": {"Year": "2013", "Team Number": "4513", "City": "Medical Lake", "State": "Washington", "Country": "USA", "Team Name": "4513: Circuit Breakers"}},{ "type": "Feature", "geometry": {"type": "Point", "coordinates": [-76.6133728
, 38.6166916]}, "properties": {"Year": "2013", "Team Number": "4514", "City": "Huntingtown", "State": "Maryland", "Country": "USA", "Team Name": "4514: Calvert STEAM Works"}},{ "type": "Feature", "geometry": {"type": "Point", "coordinates": [-84.3602982
, 34.0216599]}, "properties": {"Year": "2013", "Team Number": "4516", "City": "Roswell", "State": "Georgia", "Country": "USA", "Team Name": "4516: Hyperion"}},{ "type": "Feature", "geometry": {"type": "Point", "coordinates": [-80.197731
, 25.7748108]}, "properties": {"Year": "2013", "Team Number": "4517", "City": "Miami", "State": "Florida", "Country": "USA", "Team Name": "4517: Owl Robotics"}},{ "type": "Feature", "geometry": {"type": "Point", "coordinates": [-79.626503
, 43.4813995]}, "properties": {"Year": "2013", "Team Number": "4519", "City": "Oakville", "State": "Ontario", "Country": "Canada", "Team Name": "4519: King's Mechavaliers"}},{ "type": "Feature", "geometry": {"type": "Point", "coordinates": [-84.8164291
, 39.2620201]}, "properties": {"Year": "2013", "Team Number": "4521", "City": "Harrison", "State": "Ohio", "Country": "USA", "Team Name": "4521: Harrison Robotics"}},{ "type": "Feature", "geometry": {"type": "Point", "coordinates": [-93.2280579
, 38.7107697]}, "properties": {"Year": "2013", "Team Number": "4522", "City": "Sedalia", "State": "Missouri", "Country": "USA", "Team Name": "4522: Team SCREAM"}},{ "type": "Feature", "geometry": {"type": "Point", "coordinates": [-95.3137817
, 36.3069611]}, "properties": {"Year": "2013", "Team Number": "4523", "City": "Pryor", "State": "Oklahoma", "Country": "USA", "Team Name": "4523: MC Robo"}},{ "type": "Feature", "geometry": {"type": "Point", "coordinates": [-81.1652985
, 42.7532997]}, "properties": {"Year": "2013", "Team Number": "4525", "City": "St. Thomas", "State": "Ontario", "Country": "Canada", "Team Name": "4525: Renaissance Robotics"}},{ "type": "Feature", "geometry": {"type": "Point", "coordinates": [-73.6552963
, 45.7100983]}, "properties": {"Year": "2013", "Team Number": "4526", "City": "Terrebonne", "State": "QuTbec", "Country": "Canada", "Team Name": "4526: LTomTga"}},{ "type": "Feature", "geometry": {"type": "Point", "coordinates": [-73.8299866
, 40.7140007]}, "properties": {"Year": "2013", "Team Number": "4528", "City": "Queens", "State": "New York", "Country": "USA", "Team Name": "4528: Automatons"}},{ "type": "Feature", "geometry": {"type": "Point", "coordinates": [145.0208282
, -37.8555298]}, "properties": {"Year": "2013", "Team Number": "4529", "City": "Armadale", "State": "Victoria", "Country": "Australia", "Team Name": "4529: AI Robotics"}},{ "type": "Feature", "geometry": {"type": "Point", "coordinates": [-87.6425934
, 44.2399597]}, "properties": {"Year": "2013", "Team Number": "4531", "City": "Mishicot", "State": "Wisconsin", "Country": "USA", "Team Name": "4531: STEMpunk"}},{ "type": "Feature", "geometry": {"type": "Point", "coordinates": [-79.8894501
, 32.801281]}, "properties": {"Year": "2013", "Team Number": "4533", "City": "Mt Pleasant", "State": "South Carolina", "Country": "USA", "Team Name": "4533: Wando Adv. Robotics"}},{ "type": "Feature", "geometry": {"type": "Point", "coordinates": [-77.9459915
, 34.2349701]}, "properties": {"Year": "2013", "Team Number": "4534", "City": "Wilmington", "State": "North Carolina", "Country": "USA", "Team Name": "4534: Wired Wizards"}},{ "type": "Feature", "geometry": {"type": "Point", "coordinates": [-93.0933228
, 44.943821]}, "properties": {"Year": "2013", "Team Number": "4536", "City": "Saint Paul", "State": "Minnesota", "Country": "USA", "Team Name": "4536: MinuteBots"}},{ "type": "Feature", "geometry": {"type": "Point", "coordinates": [138.5910034
, -34.9248009]}, "properties": {"Year": "2013", "Team Number": "4537", "City": "Adelaide", "State": "South Australia", "Country": "Australia", "Team Name": "4537: RoboRoos"}},{ "type": "Feature", "geometry": {"type": "Point", "coordinates": [-76.4802322
, 37.0828781]}, "properties": {"Year": "2013", "Team Number": "4538", "City": "Newport News", "State": "Virginia", "Country": "USA", "Team Name": "4538: Enginuity"}},{ "type": "Feature", "geometry": {"type": "Point", "coordinates": [-95.7003098
, 46.7282486]}, "properties": {"Year": "2013", "Team Number": "4539", "City": "Frazee", "State": "Minnesota", "Country": "USA", "Team Name": "4539: KAOTIC Robotics"}},{ "type": "Feature", "geometry": {"type": "Point", "coordinates": [-76.6912231
, 39.1372108]}, "properties": {"Year": "2013", "Team Number": "4541", "City": "Severn", "State": "Maryland", "Country": "USA", "Team Name": "4541: CAV-ineers"}},{ "type": "Feature", "geometry": {"type": "Point", "coordinates": [-121.8855667
, 37.3385811]}, "properties": {"Year": "2013", "Team Number": "4543", "City": "San Jose", "State": "California", "Country": "USA", "Team Name": "4543: The Illuminators"}},{ "type": "Feature", "geometry": {"type": "Point", "coordinates": [-70.8741837
, 43.1934586]}, "properties": {"Year": "2013", "Team Number": "4546", "City": "Dover", "State": "New Hampshire", "Country": "USA", "Team Name": "4546: ShockWave"}},{ "type": "Feature", "geometry": {"type": "Point", "coordinates": [-78.9183502
, 40.3272591]}, "properties": {"Year": "2013", "Team Number": "4547", "City": "Johnstown", "State": "Pennsylvania", "Country": "USA", "Team Name": "4547: WestyTek"}},{ "type": "Feature", "geometry": {"type": "Point", "coordinates": [-93.037178
, 44.8913307]}, "properties": {"Year": "2013", "Team Number": "4549", "City": "South St. Paul", "State": "Minnesota", "Country": "USA", "Team Name": "4549: Iron Bulls"}},{ "type": "Feature", "geometry": {"type": "Point", "coordinates": [-104.904007
, 39.609169]}, "properties": {"Year": "2013", "Team Number": "4550", "City": "Greenwood Village", "State": "Colorado", "Country": "USA", "Team Name": "4550: Something's Bruin"}},{ "type": "Feature", "geometry": {"type": "Point", "coordinates": [-88.4288025
, 33.4950294]}, "properties": {"Year": "2013", "Team Number": "4553", "City": "Columbus", "State": "Mississippi", "Country": "USA", "Team Name": "4553: Patriobots"}},{ "type": "Feature", "geometry": {"type": "Point", "coordinates": [-69.7151108
, 44.7674904]}, "properties": {"Year": "2013", "Team Number": "4555", "City": "Skowhegan", "State": "Maine", "Country": "USA", "Team Name": "4555: Sprocketology"}},{ "type": "Feature", "geometry": {"type": "Point", "coordinates": [-72.6498413
, 41.5626602]}, "properties": {"Year": "2013", "Team Number": "4557", "City": "Middletown", "State": "Connecticut", "Country": "USA", "Team Name": "4557: FullMetal Falcons"}},{ "type": "Feature", "geometry": {"type": "Point", "coordinates": [-78.8686905
, 35.9047661]}, "properties": {"Year": "2013", "Team Number": "4561", "City": "Research Triangle Park", "State": "North Carolina", "Country": "USA", "Team Name": "4561: TerrorBytes"}},{ "type": "Feature", "geometry": {"type": "Point", "coordinates": [-82.4630585
, 29.0474892]}, "properties": {"Year": "2013", "Team Number": "4562", "City": "Dunnellon", "State": "Florida", "Country": "USA", "Team Name": "4562: RIOT"}},{ "type": "Feature", "geometry": {"type": "Point", "coordinates": [-68.7647018
, 44.7954216]}, "properties": {"Year": "2013", "Team Number": "4564", "City": "Brewer", "State": "Maine", "Country": "USA", "Team Name": "4564: Orange Chaos"}},{ "type": "Feature", "geometry": {"type": "Point", "coordinates": [-111.831459
, 33.4170418]}, "properties": {"Year": "2013", "Team Number": "4565", "City": "Mesa", "State": "Arizona", "Country": "USA", "Team Name": "4565: Coyotes"}},{ "type": "Feature", "geometry": {"type": "Point", "coordinates": [-73.4873962
, 40.6660385]}, "properties": {"Year": "2013", "Team Number": "4567", "City": "Seaford", "State": "New York", "Country": "USA", "Team Name": "4567: The Mechanized Mafia"}},{ "type": "Feature", "geometry": {"type": "Point", "coordinates": [-84.5264587
, 41.9709015]}, "properties": {"Year": "2013", "Team Number": "4568", "City": "North Adams", "State": "Michigan", "Country": "USA", "Team Name": "4568: Robot Commander"}},{ "type": "Feature", "geometry": {"type": "Point", "coordinates": [-101.8450089
, 33.5845108]}, "properties": {"Year": "2013", "Team Number": "4570", "City": "Lubbock", "State": "Texas", "Country": "USA", "Team Name": "4570: Estacado Robodors"}},{ "type": "Feature", "geometry": {"type": "Point", "coordinates": [-73.8317032
, 40.7820015]}, "properties": {"Year": "2013", "Team Number": "4571", "City": "New York", "State": "New York", "Country": "USA", "Team Name": "4571: Rambots"}},{ "type": "Feature", "geometry": {"type": "Point", "coordinates": [-73.3826523
, 41.3043594]}, "properties": {"Year": "2013", "Team Number": "4572", "City": "Redding", "State": "Connecticut", "Country": "USA", "Team Name": "4572: BArlow RobAutics"}},{ "type": "Feature", "geometry": {"type": "Point", "coordinates": [-74.381958
, 40.450489]}, "properties": {"Year": "2013", "Team Number": "4573", "City": "South River", "State": "New Jersey", "Country": "USA", "Team Name": "4573: SRNJRambotics"}},{ "type": "Feature", "geometry": {"type": "Point", "coordinates": [-75.3595428
, 39.9806213]}, "properties": {"Year": "2013", "Team Number": "4575", "City": "Broomall", "State": "Pennsylvania", "Country": "USA", "Team Name": "4575: The Tin Mints"}},{ "type": "Feature", "geometry": {"type": "Point", "coordinates": [-83.9209137
, 35.9604912]}, "properties": {"Year": "2013", "Team Number": "4576", "City": "Knoxville", "State": "Tennessee", "Country": "USA", "Team Name": "4576: Red Nation Robotics"}},{ "type": "Feature", "geometry": {"type": "Point", "coordinates": [-118.3966446
, 33.9619713]}, "properties": {"Year": "2013", "Team Number": "4578", "City": "Westchester", "State": "California", "Country": "USA", "Team Name": "4578: CometBots"}},{ "type": "Feature", "geometry": {"type": "Point", "coordinates": [-122.3298492
, 47.3011284]}, "properties": {"Year": "2013", "Team Number": "4579", "City": "Federal Way", "State": "Washington", "Country": "USA", "Team Name": "4579: RoboEagles"}},{ "type": "Feature", "geometry": {"type": "Point", "coordinates": [-86.1499634
, 39.7669106]}, "properties": {"Year": "2013", "Team Number": "4580", "City": "Indianapolis", "State": "Indiana", "Country": "USA", "Team Name": "4580: Conductors"}},{ "type": "Feature", "geometry": {"type": "Point", "coordinates": [-78.8826599
, 33.6935616]}, "properties": {"Year": "2013", "Team Number": "4582", "City": "Myrtle Beach", "State": "South Carolina", "Country": "USA", "Team Name": "4582: Robohawks"}},{ "type": "Feature", "geometry": {"type": "Point", "coordinates": [-117.1617203
, 32.7156906]}, "properties": {"Year": "2013", "Team Number": "4583", "City": "San Diego", "State": "California", "Country": "USA", "Team Name": "4583: Robosaurus"}},{ "type": "Feature", "geometry": {"type": "Point", "coordinates": [-115.3889999
, 32.6020012]}, "properties": {"Year": "2013", "Team Number": "4584", "City": "Mexicali", "State": "Baja California", "Country": "Mexico", "Team Name": "4584: SentinelFox Engineering"}},{ "type": "Feature", "geometry": {"type": "Point", "coordinates": [-111.9087219
, 40.6107597]}, "properties": {"Year": "2013", "Team Number": "4585", "City": "Midvale", "State": "Utah", "Country": "USA", "Team Name": "4585: Husky Robotics"}},{ "type": "Feature", "geometry": {"type": "Point", "coordinates": [35.0195808
, 31.8866806]}, "properties": {"Year": "2013", "Team Number": "4586", "City": "modiin", "State": "HaMerkaz (Central)", "Country": "Israel", "Team Name": "4586: PRIMO"}},{ "type": "Feature", "geometry": {"type": "Point", "coordinates": [-95.3697815
, 29.7604504]}, "properties": {"Year": "2013", "Team Number": "4587", "City": "Houston", "State": "Texas", "Country": "USA", "Team Name": "4587: Jersey Voltage"}},{ "type": "Feature", "geometry": {"type": "Point", "coordinates": [34.8096161
, 32.0823593]}, "properties": {"Year": "2013", "Team Number": "4590", "City": "Kfar Hayarok", "State": "Tel-Aviv", "Country": "Israel", "Team Name": "4590: Greenblitz"}},{ "type": "Feature", "geometry": {"type": "Point", "coordinates": [-80.16008
, 26.0104103]}, "properties": {"Year": "2013", "Team Number": "4592", "City": "Hollywood", "State": "Florida", "Country": "USA", "Team Name": "4592: M3 Mighty Mechanical Mustangs"}},{ "type": "Feature", "geometry": {"type": "Point", "coordinates": [-103.2308884
, 44.0811615]}, "properties": {"Year": "2013", "Team Number": "4593", "City": "Rapid City", "State": "South Dakota", "Country": "USA", "Team Name": "4593: Rapid Acceleration"}},{ "type": "Feature", "geometry": {"type": "Point", "coordinates": [-73.5498962
, 45.5172005]}, "properties": {"Year": "2013", "Team Number": "4594", "City": "Montreal", "State": "QuTbec", "Country": "Canada", "Team Name": "4594: PhTminix"}},{ "type": "Feature", "geometry": {"type": "Point", "coordinates": [-83.0157013
, 42.3153]}, "properties": {"Year": "2013", "Team Number": "4595", "City": "Windsor", "State": "Ontario", "Country": "Canada", "Team Name": "4595: Infinity"}},{ "type": "Feature", "geometry": {"type": "Point", "coordinates": [-98.1606979
, 26.3011608]}, "properties": {"Year": "2013", "Team Number": "4597", "City": "Edinburg", "State": "Texas", "Country": "USA", "Team Name": "4597: SABERBOTS"}},{ "type": "Feature", "geometry": {"type": "Point", "coordinates": [-111.8954697
, 40.5701294]}, "properties": {"Year": "2013", "Team Number": "4598", "City": "Sandy", "State": "Utah", "Country": "USA", "Team Name": "4598: ICARUS INNOVATED"}},{ "type": "Feature", "geometry": {"type": "Point", "coordinates": [-90.1995621
, 38.6277504]}, "properties": {"Year": "2013", "Team Number": "4600", "City": "St. Louis", "State": "Missouri", "Country": "USA", "Team Name": "4600: Tech Titans"}},{ "type": "Feature", "geometry": {"type": "Point", "coordinates": [-80.7592392
, 41.0247498]}, "properties": {"Year": "2013", "Team Number": "4601", "City": "Canfield", "State": "Ohio", "Country": "USA", "Team Name": "4601: Circuit Birds"}},{ "type": "Feature", "geometry": {"type": "Point", "coordinates": [-103.4874496
, 25.5785599]}, "properties": {"Year": "2013", "Team Number": "4603", "City": "Gomez Palacio", "State": "Durango", "Country": "Mexico", "Team Name": "4603:  Leones FrancTs"}},{ "type": "Feature", "geometry": {"type": "Point", "coordinates": [-114.0630188
, 51.0452194]}, "properties": {"Year": "2013", "Team Number": "4604", "City": "Calgary", "State": "Alberta", "Country": "Canada", "Team Name": "4604: Intimitrons from Area 51"}},{ "type": "Feature", "geometry": {"type": "Point", "coordinates": [-93.8758698
, 45.3935318]}, "properties": {"Year": "2013", "Team Number": "4607", "City": "Becker", "State": "Minnesota", "Country": "USA", "Team Name": "4607: C.I.S."}},{ "type": "Feature", "geometry": {"type": "Point", "coordinates": [-117.0735092
, 47.2267914]}, "properties": {"Year": "2013", "Team Number": "4608", "City": "Tekoa", "State": "Washington", "Country": "USA", "Team Name": "4608: Duct Tape Warriors"}},{ "type": "Feature", "geometry": {"type": "Point", "coordinates": [-97.3193817
, 30.1105404]}, "properties": {"Year": "2013", "Team Number": "4610", "City": "Bastrop", "State": "Texas", "Country": "USA", "Team Name": "4610: BearTecs"}},{ "type": "Feature", "geometry": {"type": "Point", "coordinates": [-83.0100784
, 40.1992798]}, "properties": {"Year": "2013", "Team Number": "4611", "City": "Lewis Center", "State": "Ohio", "Country": "USA", "Team Name": "4611: O-Zone"}},{ "type": "Feature", "geometry": {"type": "Point", "coordinates": [-97.5210724
, 35.4720306]}, "properties": {"Year": "2013", "Team Number": "4612", "City": "oklahoma city", "State": "Oklahoma", "Country": "USA", "Team Name": "4612: RoboRockets"}},{ "type": "Feature", "geometry": {"type": "Point", "coordinates": [151.2030029
, -33.8740005]}, "properties": {"Year": "2013", "Team Number": "4613", "City": "Sydney", "State": "New South Wales", "Country": "Australia", "Team Name": "4613: Barker Redbacks"}},{ "type": "Feature", "geometry": {"type": "Point", "coordinates": [150.7715149
, -33.7472496]}, "properties": {"Year": "2013", "Team Number": "4614", "City": "St Marys", "State": "New South Wales", "Country": "Australia", "Team Name": "4614: Purple Monkey Dishwasher"}},{ "type": "Feature", "geometry": {"type": "Point", "coordinates": [-77.6607513
, 39.9374313]}, "properties": {"Year": "2013", "Team Number": "4615", "City": "Chambersburg", "State": "Pennsylvania", "Country": "USA", "Team Name": "4615: Steel Trojans"}},{ "type": "Feature", "geometry": {"type": "Point", "coordinates": [-117.1617203
, 32.7156906]}, "properties": {"Year": "2013", "Team Number": "4616", "City": "San Diego", "State": "California", "Country": "USA", "Team Name": "4616: Team Pharaohs"}},{ "type": "Feature", "geometry": {"type": "Point", "coordinates": [-81.2462082
, 42.9868889]}, "properties": {"Year": "2013", "Team Number": "4617", "City": "London", "State": "Ontario", "Country": "Canada", "Team Name": "4617: DAUN ( Dumbledore's Army of United Nerds)"}},{ "type": "Feature", "geometry": {"type": "Point", "coordinates": [-79.7400513
, 43.2212677]}, "properties": {"Year": "2013", "Team Number": "4618", "City": "Stoney Creek", "State": "Ontario", "Country": "Canada", "Team Name": "4618: Newman Robotics"}},{ "type": "Feature", "geometry": {"type": "Point", "coordinates": [-118.0015717
, 33.6788902]}, "properties": {"Year": "2013", "Team Number": "4619", "City": "Huntington Beach", "State": "California", "Country": "USA", "Team Name": "4619: HawkBots"}},{ "type": "Feature", "geometry": {"type": "Point", "coordinates": [-82.45755
, 28.2232704]}, "properties": {"Year": "2013", "Team Number": "4622", "City": "Land O Lakes", "State": "Florida", "Country": "USA", "Team Name": "4622: Wildcats"}},{ "type": "Feature", "geometry": {"type": "Point", "coordinates": [-94.3707962
, 45.9771805]}, "properties": {"Year": "2013", "Team Number": "4623", "City": "Little Falls", "State": "Minnesota", "Country": "USA", "Team Name": "4623: Flyer Robotics"}},{ "type": "Feature", "geometry": {"type": "Point", "coordinates": [-93.2293777
, 44.09338]}, "properties": {"Year": "2013", "Team Number": "4624", "City": "Owatonna", "State": "Minnesota", "Country": "USA", "Team Name": "4624: Rebel Alliance"}},{ "type": "Feature", "geometry": {"type": "Point", "coordinates": [-111.3802795
, 56.7271996]}, "properties": {"Year": "2013", "Team Number": "4625", "City": "Fort Mcmurray", "State": "Alberta", "Country": "Canada", "Team Name": "4625: Trappers"}},{ "type": "Feature", "geometry": {"type": "Point", "coordinates": [-93.3081589
, 45.0693283]}, "properties": {"Year": "2013", "Team Number": "4626", "City": "Brooklyn Center", "State": "Minnesota", "Country": "USA", "Team Name": "4626: Iron Centaurs"}},{ "type": "Feature", "geometry": {"type": "Point", "coordinates": [-114.0630188
, 51.0452194]}, "properties": {"Year": "2013", "Team Number": "4627", "City": "Calgary", "State": "Alberta", "Country": "Canada", "Team Name": "4627: Manning Robotics"}},{ "type": "Feature", "geometry": {"type": "Point", "coordinates": [-72.9017029
, 41.3839684]}, "properties": {"Year": "2013", "Team Number": "4628", "City": "Hamden", "State": "Connecticut", "Country": "USA", "Team Name": "4628: Sintian Robotics"}},{ "type": "Feature", "geometry": {"type": "Point", "coordinates": [-84.1331024
, 36.1007195]}, "properties": {"Year": "2013", "Team Number": "4630", "City": "Clinton", "State": "Tennessee", "Country": "USA", "Team Name": "4630: Robodragon"}},{ "type": "Feature", "geometry": {"type": "Point", "coordinates": [-93.7945709
, 45.3051414]}, "properties": {"Year": "2013", "Team Number": "4632", "City": "Monticello", "State": "Minnesota", "Country": "USA", "Team Name": "4632: Monti-Pythons"}},{ "type": "Feature", "geometry": {"type": "Point", "coordinates": [-114.0630188
, 51.0452194]}, "properties": {"Year": "2013", "Team Number": "4633", "City": "Calgary", "State": "Alberta", "Country": "Canada", "Team Name": "4633: Bobcats"}},{ "type": "Feature", "geometry": {"type": "Point", "coordinates": [-114.0630188
, 51.0452194]}, "properties": {"Year": "2013", "Team Number": "4634", "City": "Calgary", "State": "Alberta", "Country": "Canada", "Team Name": "4634: The Wolfbotz"}},{ "type": "Feature", "geometry": {"type": "Point", "coordinates": [-100.3099823
, 25.6709709]}, "properties": {"Year": "2013", "Team Number": "4635", "City": "Monterrey", "State": "Nuevo Le=n", "Country": "Mexico", "Team Name": "4635: Eugenio"}},{ "type": "Feature", "geometry": {"type": "Point", "coordinates": [-75.1624527
, 39.9522781]}, "properties": {"Year": "2013", "Team Number": "4637", "City": "Philadelphia", "State": "Pennsylvania", "Country": "USA", "Team Name": "4637: BambieBotz"}},{ "type": "Feature", "geometry": {"type": "Point", "coordinates": [-77.2700424
, 39.1821785]}, "properties": {"Year": "2013", "Team Number": "4638", "City": "Germantown", "State": "Maryland", "Country": "USA", "Team Name": "4638: Jagbots"}},{ "type": "Feature", "geometry": {"type": "Point", "coordinates": [-95.8287964
, 29.7674007]}, "properties": {"Year": "2013", "Team Number": "4639", "City": "Katy", "State": "Texas", "Country": "USA", "Team Name": "4639: RoboSpartan"}},{ "type": "Feature", "geometry": {"type": "Point", "coordinates": [-73.8317032
, 40.7820015]}, "properties": {"Year": "2013", "Team Number": "4640", "City": "new york", "State": "New York", "Country": "USA", "Team Name": "4640: Metallic Panthers 4640"}},{ "type": "Feature", "geometry": {"type": "Point", "coordinates": [-96.801712
, 32.5150986]}, "properties": {"Year": "2013", "Team Number": "4641", "City": "Red Oak", "State": "Texas", "Country": "USA", "Team Name": "4641: PEN (Professional Engineering Nerds)"}},{ "type": "Feature", "geometry": {"type": "Point", "coordinates": [-119.6175232
, 37.2551003]}, "properties": {"Year": "2013", "Team Number": "4643", "City": "Butte County", "State": "California", "Country": "USA", "Team Name": "4643: Thunderbird Robotics"}},{ "type": "Feature", "geometry": {"type": "Point", "coordinates": [-87.6324463
, 41.8842506]}, "properties": {"Year": "2013", "Team Number": "4645", "City": "Chicago", "State": "Illinois", "Country": "USA", "Team Name": "4645: X-Machina"}},{ "type": "Feature", "geometry": {"type": "Point", "coordinates": [-93.6156464
, 41.5897598]}, "properties": {"Year": "2013", "Team Number": "4646", "City": "Des Moines", "State": "Iowa", "Country": "USA", "Team Name": "4646: Team ASAP"}},{ "type": "Feature", "geometry": {"type": "Point", "coordinates": [-93.6267471
, 44.6662712]}, "properties": {"Year": "2013", "Team Number": "4648", "City": "Jordan", "State": "Minnesota", "Country": "USA", "Team Name": "4648: Techno-Tech"}},{ "type": "Feature", "geometry": {"type": "Point", "coordinates": [34.7901306
, 32.0852585]}, "properties": {"Year": "2013", "Team Number": "4649", "City": "TEL AVIV", "State": "Tel-Aviv", "Country": "Israel", "Team Name": "4649: HeavyMech"}},{ "type": "Feature", "geometry": {"type": "Point", "coordinates": [-74.1439819
, 41.0582886]}, "properties": {"Year": "2013", "Team Number": "4653", "City": "Ramsey", "State": "New Jersey", "Country": "USA", "Team Name": "4653: Ironmen Robotics"}},{ "type": "Feature", "geometry": {"type": "Point", "coordinates": [-122.2168274
, 48.8262291]}, "properties": {"Year": "2013", "Team Number": "4654", "City": "Deming", "State": "Washington", "Country": "USA", "Team Name": "4654: Mountaineers"}},{ "type": "Feature", "geometry": {"type": "Point", "coordinates": [-89.0717926
, 42.4525185]}, "properties": {"Year": "2013", "Team Number": "4655", "City": "Rockton", "State": "Illinois", "Country": "USA", "Team Name": "4655: Stateline Robotics"}},{ "type": "Feature", "geometry": {"type": "Point", "coordinates": [-91.66642
, 47.0257111]}, "properties": {"Year": "2013", "Team Number": "4656", "City": "Two Harbors", "State": "Minnesota", "Country": "USA", "Team Name": "4656: Rock Solid Robotics"}},{ "type": "Feature", "geometry": {"type": "Point", "coordinates": [-92.6431198
, 45.4026184]}, "properties": {"Year": "2013", "Team Number": "4657", "City": "Saint Croix Falls", "State": "Wisconsin", "Country": "USA", "Team Name": "4657: Saints"}},{ "type": "Feature", "geometry": {"type": "Point", "coordinates": [34.8722534
, 32.0735245]}, "properties": {"Year": "2013", "Team Number": "4661", "City": "bet-hasmonai", "State": "HaMerkaz (Central)", "Country": "Israel", "Team Name": "4661: The Red Pirates"}},{ "type": "Feature", "geometry": {"type": "Point", "coordinates": [-122.8766327
, 45.7576714]}, "properties": {"Year": "2013", "Team Number": "4662", "City": "Scappoose", "State": "Oregon", "Country": "USA", "Team Name": "4662: Byte Sized Robotics"}},{ "type": "Feature", "geometry": {"type": "Point", "coordinates": [-94.1983719
, 46.3493614]}, "properties": {"Year": "2013", "Team Number": "4663", "City": "Belle Plaine MN", "State": "Minnesota", "Country": "USA", "Team Name": "4663: Cyber Tigers"}},{ "type": "Feature", "geometry": {"type": "Point", "coordinates": [-93.3061829
, 45.2438507]}, "properties": {"Year": "2013", "Team Number": "4664", "City": "Andover", "State": "Minnesota", "Country": "USA", "Team Name": "4664: Butler Bots"}},{ "type": "Feature", "geometry": {"type": "Point", "coordinates": [-94.1537933
, 44.7720413]}, "properties": {"Year": "2013", "Team Number": "4665", "City": "Glencoe", "State": "Minnesota", "Country": "USA", "Team Name": "4665: Predators"}},{ "type": "Feature", "geometry": {"type": "Point", "coordinates": [-122.4196396
, 37.7771187]}, "properties": {"Year": "2013", "Team Number": "4669", "City": "San Francisco", "State": "California", "Country": "USA", "Team Name": "4669: ESM Robotics"}},{ "type": "Feature", "geometry": {"type": "Point", "coordinates": [-94.1049728
, 45.9811897]}, "properties": {"Year": "2013", "Team Number": "4671", "City": "Pierz", "State": "Minnesota", "Country": "USA", "Team Name": "4671: Mechaneers"}},{ "type": "Feature", "geometry": {"type": "Point", "coordinates": [-94.8796463
, 47.4731407]}, "properties": {"Year": "2013", "Team Number": "4674", "City": "Bemidji", "State": "Minnesota", "Country": "USA", "Team Name": "4674: Robojacks"}},{ "type": "Feature", "geometry": {"type": "Point", "coordinates": [-87.8297424
, 41.7037697]}, "properties": {"Year": "2013", "Team Number": "4676", "City": "Palos Hills", "State": "Illinois", "Country": "USA", "Team Name": "4676: Battery Chargers"}},{ "type": "Feature", "geometry": {"type": "Point", "coordinates": [-80.4144363
, 43.4786606]}, "properties": {"Year": "2013", "Team Number": "4678", "City": "Breslau", "State": "Ontario", "Country": "Canada", "Team Name": "4678: CyberCavs"}},{ "type": "Feature", "geometry": {"type": "Point", "coordinates": [-83.0479965
, 42.3316803]}, "properties": {"Year": "2013", "Team Number": "4680", "City": "Detroit", "State": "Michigan", "Country": "USA", "Team Name": "4680: Az-Tech Eagles"}},{ "type": "Feature", "geometry": {"type": "Point", "coordinates": [-122.2059326
, 47.9765892]}, "properties": {"Year": "2013", "Team Number": "4681", "City": "Everett", "State": "Washington", "Country": "USA", "Team Name": "4681: Murphy's law"}},{ "type": "Feature", "geometry": {"type": "Point", "coordinates": [-122.3294525
, 47.603569]}, "properties": {"Year": "2013", "Team Number": "4682", "City": "Seattle", "State": "Washington", "Country": "USA", "Team Name": "4682: BraveBots"}},{ "type": "Feature", "geometry": {"type": "Point", "coordinates": [-122.1769028
, 48.0611]}, "properties": {"Year": "2013", "Team Number": "4683", "City": "Marysville", "State": "Washington", "Country": "USA", "Team Name": "4683: Full-metal Robotics"}},{ "type": "Feature", "geometry": {"type": "Point", "coordinates": [-99.1331329
, 19.4319496]}, "properties": {"Year": "2013", "Team Number": "4685", "City": "Mexico City", "State": "Distrito Federal", "Country": "Mexico", "Team Name": "4685: Aztlavolt"}},{ "type": "Feature", "geometry": {"type": "Point", "coordinates": [-93.5738831
, 44.9880905]}, "properties": {"Year": "2013", "Team Number": "4687", "City": "Long Lake", "State": "Minnesota", "Country": "USA", "Team Name": "4687: Spartans"}},{ "type": "Feature", "geometry": {"type": "Point", "coordinates": [-82.7063217
, 42.2930603]}, "properties": {"Year": "2013", "Team Number": "4688", "City": "Belle River", "State": "Ontario", "Country": "Canada", "Team Name": "4688: Saints Bot"}},{ "type": "Feature", "geometry": {"type": "Point", "coordinates": [-122.7066193
, 46.3476601]}, "properties": {"Year": "2013", "Team Number": "4692", "City": "Toutle", "State": "Washington", "Country": "USA", "Team Name": "4692: Metal Mallards"}},{ "type": "Feature", "geometry": {"type": "Point", "coordinates": [-93.7353592
, 45.086731]}, "properties": {"Year": "2013", "Team Number": "4693", "City": "Rockford", "State": "Minnesota", "Country": "USA", "Team Name": "4693: Syntax Error"}},{ "type": "Feature", "geometry": {"type": "Point", "coordinates": [-101.8338928
, 35.2072487]}, "properties": {"Year": "2013", "Team Number": "4694", "City": "Amarillo", "State": "Texas", "Country": "USA", "Team Name": "4694: Atomic Armadillo's"}},{ "type": "Feature", "geometry": {"type": "Point", "coordinates": [-106.4874878
, 31.7591591]}, "properties": {"Year": "2013", "Team Number": "4696", "City": "el paso", "State": "Texas", "Country": "USA", "Team Name": "4696: RoboAzTechs"}},{ "type": "Feature", "geometry": {"type": "Point", "coordinates": [-121.4908981
, 38.5793304]}, "properties": {"Year": "2013", "Team Number": "4698", "City": "Sacramento", "State": "California", "Country": "USA", "Team Name": "4698: Rio Raidicons"}},{ "type": "Feature", "geometry": {"type": "Point", "coordinates": [-81.0911865
, 32.0809097]}, "properties": {"Year": "2013", "Team Number": "4701", "City": "Savannah", "State": "Georgia", "Country": "USA", "Team Name": "4701: Warriors (Team W.I.R.E.)"}},{ "type": "Feature", "geometry": {"type": "Point", "coordinates": [-87.6324463
, 41.8842506]}, "properties": {"Year": "2013", "Team Number": "4702", "City": "Chicago", "State": "Illinois", "Country": "USA", "Team Name": "4702: CyberDoggz"}},{ "type": "Feature", "geometry": {"type": "Point", "coordinates": [-81.3271027
, 48.4860001]}, "properties": {"Year": "2013", "Team Number": "4704", "City": "Timmins", "State": "Ontario", "Country": "Canada", "Team Name": "4704: Northern Lights Robotics"}},{ "type": "Feature", "geometry": {"type": "Point", "coordinates": [-69.9100037
, 18.4853001]}, "properties": {"Year": "2013", "Team Number": "4707", "City": "Santo Domingo", "State": "Distrito Nacional (Santo Domingo)", "Country": "Dominican Republic", "Team Name": "4707: TEAM FORCE"}},{ "type": "Feature", "geometry": {"type": "Point", "coordinates": [-119.0507202
, 34.2233009]}, "properties": {"Year": "2013", "Team Number": "4711", "City": "Camarillo", "State": "California", "Country": "USA", "Team Name": "4711: The Flying Aces"}},{ "type": "Feature", "geometry": {"type": "Point", "coordinates": [-77.4336472
, 37.540699]}, "properties": {"Year": "2013", "Team Number": "4714", "City": "Richmond", "State": "Virginia", "Country": "USA", "Team Name": "4714: The Millennium Falcons"}},{ "type": "Feature", "geometry": {"type": "Point", "coordinates": [-86.5491028
, 45.8952293]}, "properties": {"Year": "2013", "Team Number": "4715", "City": "Cooks", "State": "Michigan", "Country": "USA", "Team Name": "4715: Big Bay Black Bears"}},{ "type": "Feature", "geometry": {"type": "Point", "coordinates": [-83.0157013
, 42.3153]}, "properties": {"Year": "2013", "Team Number": "4716", "City": "Windsor", "State": "Ontario", "Country": "Canada", "Team Name": "4716: Purple Raiders"}},{ "type": "Feature", "geometry": {"type": "Point", "coordinates": [-101.8450089
, 33.5845108]}, "properties": {"Year": "2013", "Team Number": "4717", "City": "Lubbock", "State": "Texas", "Country": "USA", "Team Name": "4717: The Outlaws"}},{ "type": "Feature", "geometry": {"type": "Point", "coordinates": [-79.4328003
, 43.6573982]}, "properties": {"Year": "2013", "Team Number": "4718", "City": "Toronto", "State": "Ontario", "Country": "Canada", "Team Name": "4718: RoboPanthers"}},{ "type": "Feature", "geometry": {"type": "Point", "coordinates": [-90.0492477
, 35.1497612]}, "properties": {"Year": "2013", "Team Number": "4721", "City": "Memphis", "State": "Tennessee", "Country": "USA", "Team Name": "4721: Tiger Bots"}},{ "type": "Feature", "geometry": {"type": "Point", "coordinates": [-98.1380997
, 19.0408993]}, "properties": {"Year": "2013", "Team Number": "4723", "City": "Puebla", "State": "Puebla", "Country": "Mexico", "Team Name": "4723: EARTH"}},{ "type": "Feature", "geometry": {"type": "Point", "coordinates": [-117.047821
, 46.34058]}, "properties": {"Year": "2013", "Team Number": "4726", "City": "Asotin", "State": "Washington", "Country": "USA", "Team Name": "4726: Robo Dynasty"}},{ "type": "Feature", "geometry": {"type": "Point", "coordinates": [-94.428978
, 45.4552689]}, "properties": {"Year": "2013", "Team Number": "4728", "City": "Cold Spring", "State": "Minnesota", "Country": "USA", "Team Name": "4728: Rocori Robotics"}},{ "type": "Feature", "geometry": {"type": "Point", "coordinates": [151.2030029
, -33.8740005]}, "properties": {"Year": "2013", "Team Number": "4729", "City": "Sydney", "State": "New South Wales", "Country": "Australia", "Team Name": "4729: EMUs (Experimental Mayhem Unit)"}},{ "type": "Feature", "geometry": {"type": "Point", "coordinates": [-84.1560135
, 31.580759]}, "properties": {"Year": "2013", "Team Number": "4730", "City": "Albany", "State": "Georgia", "Country": "USA", "Team Name": "4730: Terminators"}},{ "type": "Feature", "geometry": {"type": "Point", "coordinates": [-101.1936493
, 19.7029209]}, "properties": {"Year": "2013", "Team Number": "4731", "City": "Morelia", "State": "Michoacï¿½n", "Country": "Mexico", "Team Name": "4731: MONARCH-E"}},{ "type": "Feature", "geometry": {"type": "Point", "coordinates": [-89.2454987
, 48.381691]}, "properties": {"Year": "2013", "Team Number": "4732", "City": "Thunder Bay", "State": "Ontario", "Country": "Canada", "Team Name": "4732: SWC Robotics"}},{ "type": "Feature", "geometry": {"type": "Point", "coordinates": [-114.0630188
, 51.0452194]}, "properties": {"Year": "2013", "Team Number": "4733", "City": "Calgary", "State": "Alberta", "Country": "Canada", "Team Name": "4733: Scarlett Robotics"}},{ "type": "Feature", "geometry": {"type": "Point", "coordinates": [-101.8450089
, 33.5845108]}, "properties": {"Year": "2013", "Team Number": "4734", "City": "Lubbock", "State": "Texas", "Country": "USA", "Team Name": "4734: The Iron Plainsmen"}},{ "type": "Feature", "geometry": {"type": "Point", "coordinates": [-103.3170013
, 25.5249996]}, "properties": {"Year": "2013", "Team Number": "4735", "City": "Torreon", "State": "Coahuila", "Country": "Mexico", "Team Name": "4735: DEROF"}},{ "type": "Feature", "geometry": {"type": "Point", "coordinates": [-83.3643265
, 42.5402184]}, "properties": {"Year": "2013", "Team Number": "4737", "City": "West bloomfiled", "State": "Michigan", "Country": "USA", "Team Name": "4737: Atomigators"}},{ "type": "Feature", "geometry": {"type": "Point", "coordinates": [-117.1617203
, 32.7156906]}, "properties": {"Year": "2013", "Team Number": "4738", "City": "San Diego", "State": "California", "Country": "USA", "Team Name": "4738: Patribots"}},{ "type": "Feature", "geometry": {"type": "Point", "coordinates": [151.096756
, -33.7213402]}, "properties": {"Year": "2013", "Team Number": "4739", "City": "Normanhurst", "State": "New South Wales", "Country": "Australia", "Team Name": "4739: Thunderbolts Robotics"}},{ "type": "Feature", "geometry": {"type": "Point", "coordinates": [-86.7781601
, 36.1678391]}, "properties": {"Year": "2013", "Team Number": "4740", "City": "Nashville", "State": "Tennessee", "Country": "USA", "Team Name": "4740: Sparta Bots"}},{ "type": "Feature", "geometry": {"type": "Point", "coordinates": [-95.1108398
, 44.535141]}, "properties": {"Year": "2013", "Team Number": "4741", "City": "Redwood Falls", "State": "Minnesota", "Country": "USA", "Team Name": "4741: WingNuts"}},{ "type": "Feature", "geometry": {"type": "Point", "coordinates": [34.9174385
, 32.4398308]}, "properties": {"Year": "2013", "Team Number": "4744", "City": "Hadera", "State": "Haifa", "Country": "Israel", "Team Name": "4744: Ninjas"}},{ "type": "Feature", "geometry": {"type": "Point", "coordinates": [-100.3099823
, 25.6709709]}, "properties": {"Year": "2013", "Team Number": "4746", "City": "Monterrey", "State": "Nuevo Le=n", "Country": "Mexico", "Team Name": "4746: Alpha Gear"}},{ "type": "Feature", "geometry": {"type": "Point", "coordinates": [-79.9316025
, 32.7811508]}, "properties": {"Year": "2013", "Team Number": "4748", "City": "Charleston", "State": "South Carolina", "Country": "USA", "Team Name": "4748: Bulldog Autobots"}},{ "type": "Feature", "geometry": {"type": "Point", "coordinates": [-84.1892929
, 34.0235596]}, "properties": {"Year": "2013", "Team Number": "4749", "City": "Johns Creek", "State": "Georgia", "Country": "USA", "Team Name": "4749: Pisgah Robotics"}},{ "type": "Feature", "geometry": {"type": "Point", "coordinates": [-75.058342
, 39.955761]}, "properties": {"Year": "2013", "Team Number": "4750", "City": "Pennsauken", "State": "New Jersey", "Country": "USA", "Team Name": "4750: BERT"}},{ "type": "Feature", "geometry": {"type": "Point", "coordinates": [34.888134
, 32.0893745]}, "properties": {"Year": "2013", "Team Number": "4757", "City": "Petach Tikva", "State": "HaMerkaz (Central)", "Country": "Israel", "Team Name": "4757: Talos"}},{ "type": "Feature", "geometry": {"type": "Point", "coordinates": [-83.0479965
, 42.3316803]}, "properties": {"Year": "2013", "Team Number": "4758", "City": "Detroit", "State": "Michigan", "Country": "USA", "Team Name": "4758: RoboBlazers"}},{ "type": "Feature", "geometry": {"type": "Point", "coordinates": [-71.1037827
, 42.5259094]}, "properties": {"Year": "2013", "Team Number": "4761", "City": "Reading", "State": "Massachusetts", "Country": "USA", "Team Name": "4761: The Robockets"}},{ "type": "Feature", "geometry": {"type": "Point", "coordinates": [-92.0686722
, 43.971859]}, "properties": {"Year": "2013", "Team Number": "4762", "City": "St. Charles", "State": "Minnesota", "Country": "USA", "Team Name": "4762: Robo-Saints"}},{ "type": "Feature", "geometry": {"type": "Point", "coordinates": [-117.9291
, 33.8703194]}, "properties": {"Year": "2013", "Team Number": "4763", "City": "FULLERTON", "State": "California", "Country": "USA", "Team Name": "4763: i to the Fourth Robotics"}},{ "type": "Feature", "geometry": {"type": "Point", "coordinates": [-122.1386719
, 37.3846092]}, "properties": {"Year": "2013", "Team Number": "4765", "City": "Los Altos Hills", "State": "California", "Country": "USA", "Team Name": "4765: PWRUP"}},{ "type": "Feature", "geometry": {"type": "Point", "coordinates": [-81.5401993
, 35.2916718]}, "properties": {"Year": "2013", "Team Number": "4767", "City": "Shelby", "State": "North Carolina", "Country": "USA", "Team Name": "4767: C4"}},{ "type": "Feature", "geometry": {"type": "Point", "coordinates": [-83.0479965
, 42.3316803]}, "properties": {"Year": "2013", "Team Number": "4768", "City": "Detroit", "State": "Michigan", "Country": "USA", "Team Name": "4768: Comets"}},{ "type": "Feature", "geometry": {"type": "Point", "coordinates": [-82.6387634
, 27.7711906]}, "properties": {"Year": "2013", "Team Number": "4769", "City": "St Petersburg", "State": "Florida", "Country": "USA", "Team Name": "4769: Nerdvana"}},{ "type": "Feature", "geometry": {"type": "Point", "coordinates": [-73.8860092
, 40.8372917]}, "properties": {"Year": "2013", "Team Number": "4773", "City": "Bronx", "State": "New York", "Country": "USA", "Team Name": "4773: Steel Horses"}},{ "type": "Feature", "geometry": {"type": "Point", "coordinates": [151.2030029
, -33.8740005]}, "properties": {"Year": "2013", "Team Number": "4774", "City": "Sydney", "State": "New South Wales", "Country": "Australia", "Team Name": "4774: The Drop Bears"}},{ "type": "Feature", "geometry": {"type": "Point", "coordinates": [-99.1331329
, 19.4319496]}, "properties": {"Year": "2013", "Team Number": "4775", "City": "Mexico City", "State": "Distrito Federal", "Country": "Mexico", "Team Name": "4775: Aztech Robotics"}},{ "type": "Feature", "geometry": {"type": "Point", "coordinates": [-83.9249115
, 42.6054382]}, "properties": {"Year": "2013", "Team Number": "4776", "City": "Howell", "State": "Michigan", "Country": "USA", "Team Name": "4776: S.C.O.T.S. Bots"}},{ "type": "Feature", "geometry": {"type": "Point", "coordinates": [-93.5379105
, 44.8632011]}, "properties": {"Year": "2013", "Team Number": "4778", "City": "Chanhassen", "State": "Minnesota", "Country": "USA", "Team Name": "4778: Stormbots"}},{ "type": "Feature", "geometry": {"type": "Point", "coordinates": [-82.4925079
, 42.7197609]}, "properties": {"Year": "2013", "Team Number": "4779", "City": "Marine City", "State": "Michigan", "Country": "USA", "Team Name": "4779: RoboSapiens"}},{ "type": "Feature", "geometry": {"type": "Point", "coordinates": [-81.7346497
, 41.3841896]}, "properties": {"Year": "2013", "Team Number": "4780", "City": "Parma", "State": "Ohio", "Country": "USA", "Team Name": "4780: Tenacious Drones"}},{ "type": "Feature", "geometry": {"type": "Point", "coordinates": [-85.1377411
, 39.6412582]}, "properties": {"Year": "2013", "Team Number": "4781", "City": "Connersville", "State": "Indiana", "Country": "USA", "Team Name": "4781: RoboSpartans"}},{ "type": "Feature", "geometry": {"type": "Point", "coordinates": [-110.9469528
, 29.0790405]}, "properties": {"Year": "2013", "Team Number": "4782", "City": "Hermosillo", "State": "Sonora", "Country": "Mexico", "Team Name": "4782: Borrebots CSN"}},{ "type": "Feature", "geometry": {"type": "Point", "coordinates": [-75.6880035
, 45.3891983]}, "properties": {"Year": "2013", "Team Number": "4783", "City": "Ottawa", "State": "Ontario", "Country": "Canada", "Team Name": "4783: RoboRavens"}},{ "type": "Feature", "geometry": {"type": "Point", "coordinates": [35.2974586
, 32.6110649]}, "properties": {"Year": "2013", "Team Number": "4784", "City": "Afula", "State": "HaZafon (Northern)", "Country": "Israel", "Team Name": "4784: ATOM"}},{ "type": "Feature", "geometry": {"type": "Point", "coordinates": [-87.9280777
, 43.12677]}, "properties": {"Year": "2013", "Team Number": "4786", "City": "Glendale", "State": "Wisconsin", "Country": "USA", "Team Name": "4786: Nicolet FEAR"}},{ "type": "Feature", "geometry": {"type": "Point", "coordinates": [-87.6324463
, 41.8842506]}, "properties": {"Year": "2013", "Team Number": "4787", "City": "Chicago", "State": "Illinois", "Country": "USA", "Team Name": "4787: Axiom"}},{ "type": "Feature", "geometry": {"type": "Point", "coordinates": [115.9187164
, -32.0019684]}, "properties": {"Year": "2013", "Team Number": "4788", "City": "Bentley", "State": "Western Australia", "Country": "Australia", "Team Name": "4788: Ace of Spanners"}},{ "type": "Feature", "geometry": {"type": "Point", "coordinates": [-86.2540436
, 41.6790504]}, "properties": {"Year": "2013", "Team Number": "4791", "City": "South Bend", "State": "Indiana", "Country": "USA", "Team Name": "4791: Pandroids"}},{ "type": "Feature", "geometry": {"type": "Point", "coordinates": [-115.1186676
, 36.1996613]}, "properties": {"Year": "2013", "Team Number": "4792", "City": "North Las Vegas", "State": "Nevada", "Country": "USA", "Team Name": "4792: Desert Storm"}},{ "type": "Feature", "geometry": {"type": "Point", "coordinates": [35.0195045
, 32.6147385]}, "properties": {"Year": "2013", "Team Number": "4794", "City": "shaab", "State": "Haifa", "Country": "Israel", "Team Name": "4794: infinity"}},{ "type": "Feature", "geometry": {"type": "Point", "coordinates": [-79.0392685
, 35.9274521]}, "properties": {"Year": "2013", "Team Number": "4795", "City": "Chapel Hill", "State": "North Carolina", "Country": "USA", "Team Name": "4795: EastBots"}},{ "type": "Feature", "geometry": {"type": "Point", "coordinates": [-71.125618
, 42.2549515]}, "properties": {"Year": "2013", "Team Number": "4796", "City": "Hyde Park", "State": "Massachusetts", "Country": "USA", "Team Name": "4796: Cyber Dragons"}},{ "type": "Feature", "geometry": {"type": "Point", "coordinates": [-102.6115265
, 34.3854485]}, "properties": {"Year": "2013", "Team Number": "4799", "City": "Lazbuddie", "State": "Texas", "Country": "USA", "Team Name": "4799: Lazbuddie Robotics sponsored by Society of Women Engineers"}},{ "type": "Feature", "geometry": {"type": "Point", "coordinates": [-115.1399689
, 36.1719093]}, "properties": {"Year": "2013", "Team Number": "4800", "City": "Las Vegas", "State": "Nevada", "Country": "USA", "Team Name": "4800: Rage Against the Machines"}},{ "type": "Feature", "geometry": {"type": "Point", "coordinates": [150.9081421
, -33.7725983]}, "properties": {"Year": "2013", "Team Number": "4801", "City": "Blacktown", "State": "New South Wales", "Country": "Australia", "Team Name": "4801: Blacktown Boys"}},{ "type": "Feature", "geometry": {"type": "Point", "coordinates": [150.9081421
, -33.7725983]}, "properties": {"Year": "2013", "Team Number": "4802", "City": "Blacktown", "State": "New South Wales", "Country": "Australia", "Team Name": "4802: Blacktown Girls"}},{ "type": "Feature", "geometry": {"type": "Point", "coordinates": [-87.8702393
, 43.41399]}, "properties": {"Year": "2013", "Team Number": "4804", "City": "Port Washington", "State": "Wisconsin", "Country": "USA", "Team Name": "4804: Port PiraTech"}},{ "type": "Feature", "geometry": {"type": "Point", "coordinates": [-90.0777512
, 29.9536991]}, "properties": {"Year": "2013", "Team Number": "4805", "City": "New Orleans", "State": "Louisiana", "Country": "USA", "Team Name": "4805: Robotic Warriors"}},{ "type": "Feature", "geometry": {"type": "Point", "coordinates": [-92.9480286
, 39.7122498]}, "properties": {"Year": "2013", "Team Number": "4809", "City": "Marceline", "State": "Missouri", "Country": "USA", "Team Name": "4809: Black Knight Robotics"}},{ "type": "Feature", "geometry": {"type": "Point", "coordinates": [-82.933548
, 42.6005402]}, "properties": {"Year": "2013", "Team Number": "4810", "City": "Clinton Township", "State": "Michigan", "Country": "USA", "Team Name": "4810: I AM Robot"}},{ "type": "Feature", "geometry": {"type": "Point", "coordinates": [-83.1094131
, 42.5199814]}, "properties": {"Year": "2013", "Team Number": "4811", "City": "Madison Heights", "State": "Michigan", "Country": "USA", "Team Name": "4811: Majestic Eagles"}},{ "type": "Feature", "geometry": {"type": "Point", "coordinates": [-81.2462082
, 42.9868889]}, "properties": {"Year": "2013", "Team Number": "4814", "City": "London", "State": "Ontario", "Country": "Canada", "Team Name": "4814: Team 4814 WE FIRST Incubator"}},{ "type": "Feature", "geometry": {"type": "Point", "coordinates": [-83.0283737
, 42.4774399]}, "properties": {"Year": "2013", "Team Number": "4815", "City": "Center Line", "State": "Michigan", "Country": "USA", "Team Name": "4815: ELECTROPANTHERS"}},{ "type": "Feature", "geometry": {"type": "Point", "coordinates": [-78.6426697
, 35.785511]}, "properties": {"Year": "2013", "Team Number": "4816", "City": "Raleigh", "State": "North Carolina", "Country": "USA", "Team Name": "4816: Gadget Girls"}},{ "type": "Feature", "geometry": {"type": "Point", "coordinates": [103.8539963
, 1.2986799]}, "properties": {"Year": "2013", "Team Number": "4817", "City": "Singapore", "State": "Central Singapore", "Country": "Singapore", "Team Name": "4817: One Degree North"}},{ "type": "Feature", "geometry": {"type": "Point", "coordinates": [-96.8848419
, 46.8725395]}, "properties": {"Year": "2013", "Team Number": "4818", "City": "West Fargo", "State": "North Dakota", "Country": "USA", "Team Name": "4818: The Herd"}},{ "type": "Feature", "geometry": {"type": "Point", "coordinates": [-84.7681503
, 43.597229]}, "properties": {"Year": "2013", "Team Number": "4819", "City": "Mt. Pleasant", "State": "Michigan", "Country": "USA", "Team Name": "4819: Flat Mountain Mechanics"}},{ "type": "Feature", "geometry": {"type": "Point", "coordinates": [-77.0319595
, 38.8903694]}, "properties": {"Year": "2013", "Team Number": "4821", "City": "Washington", "State": "District of Columbia", "Country": "USA", "Team Name": "4821: The Jokers"}},{ "type": "Feature", "geometry": {"type": "Point", "coordinates": [-78.8886032
, 34.0559502]}, "properties": {"Year": "2013", "Team Number": "4823", "City": "Loris", "State": "South Carolina", "Country": "USA", "Team Name": "4823: Cyber-Manes"}},{ "type": "Feature", "geometry": {"type": "Point", "coordinates": [-86.3602066
, 40.7537498]}, "properties": {"Year": "2013", "Team Number": "4824", "City": "Logansport", "State": "Indiana", "Country": "USA", "Team Name": "4824: BerryBots"}},{ "type": "Feature", "geometry": {"type": "Point", "coordinates": [-87.612587
, 46.5068092]}, "properties": {"Year": "2013", "Team Number": "4827", "City": "Negaunee", "State": "Michigan", "Country": "USA", "Team Name": "4827: Minerbotics"}},{ "type": "Feature", "geometry": {"type": "Point", "coordinates": [-78.6426697
, 35.785511]}, "properties": {"Year": "2013", "Team Number": "4828", "City": "Raleigh", "State": "North Carolina", "Country": "USA", "Team Name": "4828: RoboEagles"}},{ "type": "Feature", "geometry": {"type": "Point", "coordinates": [-79.0392685
, 35.9274521]}, "properties": {"Year": "2013", "Team Number": "4829", "City": "Chapel Hill", "State": "North Carolina", "Country": "USA", "Team Name": "4829: Titanium Tigers"}},{ "type": "Feature", "geometry": {"type": "Point", "coordinates": [-86.2443237
, 45.9526215]}, "properties": {"Year": "2013", "Team Number": "4835", "City": "Manistique", "State": "Michigan", "Country": "USA", "Team Name": "4835: Junkyard Dawgs"}},{ "type": "Feature", "geometry": {"type": "Point", "coordinates": [-83.2958374
, 42.3984909]}, "properties": {"Year": "2013", "Team Number": "4840", "City": "Redford", "State": "Michigan", "Country": "USA", "Team Name": "4840: The Panthers"}},{ "type": "Feature", "geometry": {"type": "Point", "coordinates": [-110.9697571
, 32.22155]}, "properties": {"Year": "2013", "Team Number": "4841", "City": "Tucson", "State": "Arizona", "Country": "USA", "Team Name": "4841: Optimal Robotics"}},{ "type": "Feature", "geometry": {"type": "Point", "coordinates": [-106.0719528
, 28.6397209]}, "properties": {"Year": "2013", "Team Number": "4842", "City": "Chihuahua", "State": "Chihuahua", "Country": "Mexico", "Team Name": "4842: Botrregos"}},{ "type": "Feature", "geometry": {"type": "Point", "coordinates": [-92.0998535
, 46.7879601]}, "properties": {"Year": "2013", "Team Number": "4845", "City": "Duluth", "State": "Minnesota", "Country": "USA", "Team Name": "4845: Lion Pride"}},{ "type": "Feature", "geometry": {"type": "Point", "coordinates": [-87.3371735
, 41.6037102]}, "properties": {"Year": "2013", "Team Number": "4846", "City": "Gary", "State": "Indiana", "Country": "USA", "Team Name": "4846: G.I. Frost Bots"}},{ "type": "Feature", "geometry": {"type": "Point", "coordinates": [-78.9755936
, 34.1276588]}, "properties": {"Year": "2013", "Team Number": "4847", "City": "Green Sea", "State": "South Carolina", "Country": "USA", "Team Name": "4847: Tech-No-Logic Trojans"}},{ "type": "Feature", "geometry": {"type": "Point", "coordinates": [-83.0479965
, 42.3316803]}, "properties": {"Year": "2013", "Team Number": "4851", "City": "Detroit", "State": "Michigan", "Country": "USA", "Team Name": "4851: JungleBots"}},{ "type": "Feature", "geometry": {"type": "Point", "coordinates": [-102.0002975
, 33.691021]}, "properties": {"Year": "2013", "Team Number": "4852", "City": "Shallowater", "State": "Texas", "Country": "USA", "Team Name": "4852: The Eliminators"}},{ "type": "Feature", "geometry": {"type": "Point", "coordinates": [-83.0479965
, 42.3316803]}, "properties": {"Year": "2013", "Team Number": "4854", "City": "Detroit", "State": "Michigan", "Country": "USA", "Team Name": "4854: Trobots"}},{ "type": "Feature", "geometry": {"type": "Point", "coordinates": [-86.2726212
, 42.4032097]}, "properties": {"Year": "2013", "Team Number": "4855", "City": "South Haven", "State": "Michigan", "Country": "USA", "Team Name": "4855: Ramageddon"}},{ "type": "Feature", "geometry": {"type": "Point", "coordinates": [-73.8317032
, 40.7820015]}, "properties": {"Year": "2013", "Team Number": "4856", "City": "New York", "State": "New York", "Country": "USA", "Team Name": "4856: Double X"}},{ "type": "Feature", "geometry": {"type": "Point", "coordinates": [-92.6455994
, 44.0326385]}, "properties": {"Year": "2013", "Team Number": "4859", "City": "Byron", "State": "Minnesota", "Country": "USA", "Team Name": "4859: The CyBears"}},