{ "type": "FeatureCollection", "features": [{ "type": "Feature", "geometry": {"type": "Point", "coordinates": [-73.8197937
, 42.8592987]}, "properties": {"Year": "1992", "Team Number": "20", "City": "Clifton Park", "State": "New York", "Country": "USA", "Team Name": "20: The Rocketeers"}},{ "type": "Feature", "geometry": {"type": "Point", "coordinates": [-86.1262436
, 40.4865112]}, "properties": {"Year": "1992", "Team Number": "45", "City": "Kokomo", "State": "Indiana", "Country": "USA", "Team Name": "45: TechnoKats Robotics Team"}},{ "type": "Feature", "geometry": {"type": "Point", "coordinates": [-71.6841965
, 42.4207115]}, "properties": {"Year": "1992", "Team Number": "126", "City": "Clinton", "State": "Massachusetts", "Country": "USA", "Team Name": "126: Gael Force"}},{ "type": "Feature", "geometry": {"type": "Point", "coordinates": [-96.106781
, 33.1390686]}, "properties": {"Year": "1992", "Team Number": "148", "City": "Greenville", "State": "Texas", "Country": "USA", "Team Name": "148: Robowranglers"}},{ "type": "Feature", "geometry": {"type": "Point", "coordinates": [-71.4643326
, 42.7586212]}, "properties": {"Year": "1992", "Team Number": "151", "City": "Nashua", "State": "New Hampshire", "Country": "USA", "Team Name": "151: Tough Techs"}},{ "type": "Feature", "geometry": {"type": "Point", "coordinates": [-71.8021927
, 42.2634087]}, "properties": {"Year": "1992", "Team Number": "190", "City": "Worcester", "State": "Massachusetts", "Country": "USA", "Team Name": "190: Gompei and the H.E.R.D."}},{ "type": "Feature", "geometry": {"type": "Point", "coordinates": [-77.6163177
, 43.1557999]}, "properties": {"Year": "1992", "Team Number": "191", "City": "Rochester", "State": "New York", "Country": "USA", "Team Name": "191: X-CATS"}},{ "type": "Feature", "geometry": {"type": "Point", "coordinates": [-89.6216507
, 42.2972908]}, "properties": {"Year": "1994", "Team Number": "81", "City": "Freeport", "State": "Illinois", "Country": "USA", "Team Name": "81: MetalHeads"}},{ "type": "Feature", "geometry": {"type": "Point", "coordinates": [-84.5041275
, 39.1071281]}, "properties": {"Year": "1994", "Team Number": "144", "City": "Cincinnati", "State": "Ohio", "Country": "USA", "Team Name": "144: The R.O.C.K"}},{ "type": "Feature", "geometry": {"type": "Point", "coordinates": [-72.745369
, 41.6225014]}, "properties": {"Year": "1994", "Team Number": "155", "City": "Berlin", "State": "Connecticut", "Country": "USA", "Team Name": "155: The Technonuts"}},{ "type": "Feature", "geometry": {"type": "Point", "coordinates": [-77.6163177
, 43.1557999]}, "properties": {"Year": "1995", "Team Number": "73", "City": "Rochester", "State": "New York", "Country": "USA", "Team Name": "73: The Illumination"}},{ "type": "Feature", "geometry": {"type": "Point", "coordinates": [-86.1017609
, 42.7730904]}, "properties": {"Year": "1995", "Team Number": "74", "City": "Holland", "State": "Michigan", "Country": "USA", "Team Name": "74: Team C.H.A.O.S."}},{ "type": "Feature", "geometry": {"type": "Point", "coordinates": [-80.1435623
, 26.1236706]}, "properties": {"Year": "1995", "Team Number": "108", "City": "Ft. Lauderdale", "State": "Florida", "Country": "USA", "Team Name": "108: SigmaC@T Robotic Team"}},{ "type": "Feature", "geometry": {"type": "Point", "coordinates": [-81.6907196
, 41.5047493]}, "properties": {"Year": "1995", "Team Number": "120", "City": "Cleveland", "State": "Ohio", "Country": "USA", "Team Name": "120: Cleveland's Team"}},{ "type": "Feature", "geometry": {"type": "Point", "coordinates": [-71.463089
, 42.991169]}, "properties": {"Year": "1995", "Team Number": "131", "City": "Manchester", "State": "New Hampshire", "Country": "USA", "Team Name": "131: C.H.A.O.S."}},{ "type": "Feature", "geometry": {"type": "Point", "coordinates": [-86.1017609
, 42.7730904]}, "properties": {"Year": "1995", "Team Number": "141", "City": "Holland", "State": "Michigan", "Country": "USA", "Team Name": "141: WOBOT"}},{ "type": "Feature", "geometry": {"type": "Point", "coordinates": [-71.5479889
, 42.3468018]}, "properties": {"Year": "1995", "Team Number": "157", "City": "Marlborough", "State": "Massachusetts", "Country": "USA", "Team Name": "157: AZTECHS"}},{ "type": "Feature", "geometry": {"type": "Point", "coordinates": [-71.4906006
, 42.872509]}, "properties": {"Year": "1995", "Team Number": "166", "City": "Merrimack", "State": "New Hampshire", "Country": "USA", "Team Name": "166: Chop Shop"}},{ "type": "Feature", "geometry": {"type": "Point", "coordinates": [-90.4801331
, 42.7349281]}, "properties": {"Year": "1995", "Team Number": "171", "City": "Platteville", "State": "Wisconsin", "Country": "USA", "Team Name": "171: Cheese Curd Herd"}},{ "type": "Feature", "geometry": {"type": "Point", "coordinates": [-72.3726196
, 41.8739319]}, "properties": {"Year": "1995", "Team Number": "173", "City": "Tolland", "State": "Connecticut", "Country": "USA", "Team Name": "173: RAGE (Robotics And Gadget Engineering)"}},{ "type": "Feature", "geometry": {"type": "Point", "coordinates": [-72.5601501
, 41.8254585]}, "properties": {"Year": "1995", "Team Number": "177", "City": "South Windsor", "State": "Connecticut", "Country": "USA", "Team Name": "177: Bobcat Robotics"}},{ "type": "Feature", "geometry": {"type": "Point", "coordinates": [-122.1607895
, 37.4446602]}, "properties": {"Year": "1996", "Team Number": "8", "City": "Palo Alto", "State": "California", "Country": "USA", "Team Name": "8: Team 8"}},{ "type": "Feature", "geometry": {"type": "Point", "coordinates": [-92.3852921
, 36.3350983]}, "properties": {"Year": "1996", "Team Number": "16", "City": "Mountain Home", "State": "Arkansas", "Country": "USA", "Team Name": "16: Bomb Squad"}},{ "type": "Feature", "geometry": {"type": "Point", "coordinates": [-72.2953262
, 41.0010681]}, "properties": {"Year": "1996", "Team Number": "28", "City": "Sag Harbor", "State": "New York", "Country": "USA", "Team Name": "28: Pierson Whalers"}},{ "type": "Feature", "geometry": {"type": "Point", "coordinates": [-83.2205276
, 42.6711197]}, "properties": {"Year": "1996", "Team Number": "33", "City": "Auburn Hills", "State": "Michigan", "Country": "USA", "Team Name": "33: Killer Bees"}},{ "type": "Feature", "geometry": {"type": "Point", "coordinates": [-83.2884216
, 42.6368713]}, "properties": {"Year": "1996", "Team Number": "51", "City": "Pontiac", "State": "Michigan", "Country": "USA", "Team Name": "51: The Wings of Fire"}},{ "type": "Feature", "geometry": {"type": "Point", "coordinates": [-70.2517319
, 43.6376114]}, "properties": {"Year": "1996", "Team Number": "58", "City": "South Portland", "State": "Maine", "Country": "USA", "Team Name": "58: The Riot Crew"}},{ "type": "Feature", "geometry": {"type": "Point", "coordinates": [-87.5089264
, 41.6050797]}, "properties": {"Year": "1996", "Team Number": "71", "City": "Hammond", "State": "Indiana", "Country": "USA", "Team Name": "71: Team Hammond"}},{ "type": "Feature", "geometry": {"type": "Point", "coordinates": [-74.6531067
, 40.4825516]}, "properties": {"Year": "1996", "Team Number": "75", "City": "Hillsborough", "State": "New Jersey", "Country": "USA", "Team Name": "75: RoboRaiders"}},{ "type": "Feature", "geometry": {"type": "Point", "coordinates": [-71.3113327
, 41.4921608]}, "properties": {"Year": "1996", "Team Number": "78", "City": "Newport", "State": "Rhode Island", "Country": "USA", "Team Name": "78: AIR STRIKE"}},{ "type": "Feature", "geometry": {"type": "Point", "coordinates": [-86.0165329
, 42.8121414]}, "properties": {"Year": "1996", "Team Number": "85", "City": "Zeeland", "State": "Michigan", "Country": "USA", "Team Name": "85: B.O.B. (Built on Brains)"}},{ "type": "Feature", "geometry": {"type": "Point", "coordinates": [-70.9770203
, 41.9887314]}, "properties": {"Year": "1996", "Team Number": "88", "City": "Bridgewater", "State": "Massachusetts", "Country": "USA", "Team Name": "88: TJ(Squared)"}},{ "type": "Feature", "geometry": {"type": "Point", "coordinates": [-71.1060104
, 42.3667908]}, "properties": {"Year": "1996", "Team Number": "97", "City": "Cambridge", "State": "Massachusetts", "Country": "USA", "Team Name": "97: Bionic Beef"}},{ "type": "Feature", "geometry": {"type": "Point", "coordinates": [-87.9804382
, 42.0871811]}, "properties": {"Year": "1996", "Team Number": "111", "City": "Arlington Heights", "State": "Illinois", "Country": "USA", "Team Name": "111: WildStang"}},{ "type": "Feature", "geometry": {"type": "Point", "coordinates": [-77.3855515
, 38.9696884]}, "properties": {"Year": "1996", "Team Number": "116", "City": "Herndon", "State": "Virginia", "Country": "USA", "Team Name": "116: Epsilon Delta"}},{ "type": "Feature", "geometry": {"type": "Point", "coordinates": [-71.4543228
, 41.4887123]}, "properties": {"Year": "1996", "Team Number": "121", "City": "Newport County", "State": "Rhode Island", "Country": "USA", "Team Name": "121: Rhode Warriors"}},{ "type": "Feature", "geometry": {"type": "Point", "coordinates": [-71.6240234
, 42.8619308]}, "properties": {"Year": "1996", "Team Number": "138", "City": "Amherst", "State": "New Hampshire", "Country": "USA", "Team Name": "138: Entropy"}},{ "type": "Feature", "geometry": {"type": "Point", "coordinates": [-69.203949
, 45.3152504]}, "properties": {"Year": "1996", "Team Number": "172", "City": "Gorham/Falmouth", "State": "Maine", "Country": "USA", "Team Name": "172: Northern Force"}},{ "type": "Feature", "geometry": {"type": "Point", "coordinates": [-72.5743637
, 41.9983482]}, "properties": {"Year": "1996", "Team Number": "175", "City": "Enfield", "State": "Connecticut", "Country": "USA", "Team Name": "175: Buzz Robotics"}},{ "type": "Feature", "geometry": {"type": "Point", "coordinates": [-72.631813
, 41.9296989]}, "properties": {"Year": "1996", "Team Number": "176", "City": "Windsor Locks", "State": "Connecticut", "Country": "USA", "Team Name": "176: Aces High"}},{ "type": "Feature", "geometry": {"type": "Point", "coordinates": [-83.2884216
, 42.6368713]}, "properties": {"Year": "1997", "Team Number": "1", "City": "Pontiac", "State": "Michigan", "Country": "USA", "Team Name": "1: The Juggernauts"}},{ "type": "Feature", "geometry": {"type": "Point", "coordinates": [-118.4653854
, 34.1978111]}, "properties": {"Year": "1997", "Team Number": "4", "City": "Van Nuys", "State": "California", "Country": "USA", "Team Name": "4: Team 4 ELEMENT"}},{ "type": "Feature", "geometry": {"type": "Point", "coordinates": [-74.6988907
, 40.8469086]}, "properties": {"Year": "1997", "Team Number": "11", "City": "Flanders", "State": "New Jersey", "Country": "USA", "Team Name": "11: MORT"}},{ "type": "Feature", "geometry": {"type": "Point", "coordinates": [-74.4719009
, 40.4678001]}, "properties": {"Year": "1997", "Team Number": "25", "City": "North Brunswick", "State": "New Jersey", "Country": "USA", "Team Name": "25: Raider Robotix"}},{ "type": "Feature", "geometry": {"type": "Point", "coordinates": [-83.419899
, 42.7347717]}, "properties": {"Year": "1997", "Team Number": "27", "City": "Clarkston", "State": "Michigan", "Country": "USA", "Team Name": "27: Team RUSH"}},{ "type": "Feature", "geometry": {"type": "Point", "coordinates": [-95.9758682
, 36.0241089]}, "properties": {"Year": "1997", "Team Number": "31", "City": "Jenks", "State": "Oklahoma", "Country": "USA", "Team Name": "31: Prime Movers"}},{ "type": "Feature", "geometry": {"type": "Point", "coordinates": [-86.971283
, 34.8045006]}, "properties": {"Year": "1997", "Team Number": "34", "City": "Athens", "State": "Alabama", "Country": "USA", "Team Name": "34: Rockets"}},{ "type": "Feature", "geometry": {"type": "Point", "coordinates": [-74.4912262
, 40.6190414]}, "properties": {"Year": "1997", "Team Number": "41", "City": "Warren", "State": "New Jersey", "Country": "USA", "Team Name": "41: RoboWarriors"}},{ "type": "Feature", "geometry": {"type": "Point", "coordinates": [-74.5297165
, 40.5641785]}, "properties": {"Year": "1997", "Team Number": "56", "City": "Bound Brook", "State": "New Jersey", "Country": "USA", "Team Name": "56: R.O.B.B.E."}},{ "type": "Feature", "geometry": {"type": "Point", "coordinates": [-80.197731
, 25.7748108]}, "properties": {"Year": "1997", "Team Number": "59", "City": "Miami", "State": "Florida", "Country": "USA", "Team Name": "59: RamTech"}},{ "type": "Feature", "geometry": {"type": "Point", "coordinates": [-114.0554276
, 35.1888199]}, "properties": {"Year": "1997", "Team Number": "60", "City": "Kingman", "State": "Arizona", "Country": "USA", "Team Name": "60: Bionic Bulldogs"}},{ "type": "Feature", "geometry": {"type": "Point", "coordinates": [-80.0852432
, 42.1294403]}, "properties": {"Year": "1997", "Team Number": "63", "City": "Erie", "State": "Pennsylvania", "Country": "USA", "Team Name": "63: McDowell Robotics Team 63"}},{ "type": "Feature", "geometry": {"type": "Point", "coordinates": [-83.6119385
, 42.6437607]}, "properties": {"Year": "1997", "Team Number": "67", "City": "Highland", "State": "Michigan", "Country": "USA", "Team Name": "67: The HOT Team"}},{ "type": "Feature", "geometry": {"type": "Point", "coordinates": [-74.7883987
, 39.9929695]}, "properties": {"Year": "1997", "Team Number": "87", "City": "Mount Holly", "State": "New Jersey", "Country": "USA", "Team Name": "87: Red Devils"}},{ "type": "Feature", "geometry": {"type": "Point", "coordinates": [-88.4085007
, 44.240799]}, "properties": {"Year": "1997", "Team Number": "93", "City": "Appleton", "State": "Wisconsin", "Country": "USA", "Team Name": "93: NEW Apple Corps"}},{ "type": "Feature", "geometry": {"type": "Point", "coordinates": [-72.3185425
, 43.6517906]}, "properties": {"Year": "1997", "Team Number": "95", "City": "White River Junction", "State": "Vermont", "Country": "USA", "Team Name": "95: Grasshoppers"}},{ "type": "Feature", "geometry": {"type": "Point", "coordinates": [-87.6324463
, 41.8842506]}, "properties": {"Year": "1997", "Team Number": "101", "City": "Chicago", "State": "Illinois", "Country": "USA", "Team Name": "101: Striker"}},{ "type": "Feature", "geometry": {"type": "Point", "coordinates": [-75.178833
, 40.5585709]}, "properties": {"Year": "1997", "Team Number": "103", "City": "Kintnersville", "State": "Pennsylvania", "Country": "USA", "Team Name": "103: Cybersonics"}},{ "type": "Feature", "geometry": {"type": "Point", "coordinates": [-86.1017609
, 42.7730904]}, "properties": {"Year": "1997", "Team Number": "107", "City": "Holland", "State": "Michigan", "Country": "USA", "Team Name": "107: Team R.O.B.O.T.I.C.S."}},{ "type": "Feature", "geometry": {"type": "Point", "coordinates": [-122.1142273
, 37.3830795]}, "properties": {"Year": "1997", "Team Number": "114", "City": "Los Altos", "State": "California", "Country": "USA", "Team Name": "114: Eagle Strike"}},{ "type": "Feature", "geometry": {"type": "Point", "coordinates": [-95.0945511
, 29.50247]}, "properties": {"Year": "1997", "Team Number": "118", "City": "League City", "State": "Texas", "Country": "USA", "Team Name": "118: Robonauts"}},{ "type": "Feature", "geometry": {"type": "Point", "coordinates": [-76.3451233
, 37.0277901]}, "properties": {"Year": "1997", "Team Number": "122", "City": "Hampton", "State": "Virginia", "Country": "USA", "Team Name": "122: NASA Knights"}},{ "type": "Feature", "geometry": {"type": "Point", "coordinates": [-83.0517273
, 42.3994102]}, "properties": {"Year": "1997", "Team Number": "123", "City": "Hamtramck", "State": "Michigan", "Country": "USA", "Team Name": "123: Team - Cosmos"}},{ "type": "Feature", "geometry": {"type": "Point", "coordinates": [-83.0452271
, 39.9794807]}, "properties": {"Year": "1997", "Team Number": "128", "City": "Grandview Heights", "State": "Ohio", "Country": "USA", "Team Name": "128: The Botcats"}},{ "type": "Feature", "geometry": {"type": "Point", "coordinates": [-70.5481033
, 43.7340889]}, "properties": {"Year": "1997", "Team Number": "133", "City": "Standish", "State": "Maine", "Country": "USA", "Team Name": "133: B.E.R.T."}},{ "type": "Feature", "geometry": {"type": "Point", "coordinates": [-74.4170609
, 40.6176186]}, "properties": {"Year": "1997", "Team Number": "136", "City": "Plainfield", "State": "New Jersey", "Country": "USA", "Team Name": "136: Killer Kardinals"}},{ "type": "Feature", "geometry": {"type": "Point", "coordinates": [-75.5385208
, 42.5471916]}, "properties": {"Year": "1997", "Team Number": "145", "City": "Norwich", "State": "New York", "Country": "USA", "Team Name": "145: T-Rx"}},{ "type": "Feature", "geometry": {"type": "Point", "coordinates": [-75.8639297
, 41.1662407]}, "properties": {"Year": "1997", "Team Number": "156", "City": "Fairview", "State": "Pennsylvania", "Country": "USA", "Team Name": "156: RPM  - Robotics Plus Mayhem"}},{ "type": "Feature", "geometry": {"type": "Point", "coordinates": [-72.8385696
, 41.7121201]}, "properties": {"Year": "1997", "Team Number": "178", "City": "Farmington", "State": "Connecticut", "Country": "USA", "Team Name": "178: The 2nd Law Enforcers"}},{ "type": "Feature", "geometry": {"type": "Point", "coordinates": [-122.1607895
, 37.4446602]}, "properties": {"Year": "1997", "Team Number": "192", "City": "Palo Alto", "State": "California", "Country": "USA", "Team Name": "192: GRT"}},{ "type": "Feature", "geometry": {"type": "Point", "coordinates": [-74.6988907
, 40.8469086]}, "properties": {"Year": "1997", "Team Number": "193", "City": "Flanders", "State": "New Jersey", "Country": "USA", "Team Name": "193: MORT Beta"}},{ "type": "Feature", "geometry": {"type": "Point", "coordinates": [-80.8079834
, 28.6080303]}, "properties": {"Year": "1998", "Team Number": "21", "City": "Titusville", "State": "Florida", "Country": "USA", "Team Name": "21: ComBBAT"}},{ "type": "Feature", "geometry": {"type": "Point", "coordinates": [-80.8127975
, 41.2361984]}, "properties": {"Year": "1998", "Team Number": "48", "City": "Warren", "State": "Ohio", "Country": "USA", "Team Name": "48: Delphi E.L.I.T.E."}},{ "type": "Feature", "geometry": {"type": "Point", "coordinates": [-76.8803101
, 39.0006714]}, "properties": {"Year": "1998", "Team Number": "53", "City": "Greenbelt", "State": "Maryland", "Country": "USA", "Team Name": "53: Area 53"}},{ "type": "Feature", "geometry": {"type": "Point", "coordinates": [-95.3697815
, 29.7604504]}, "properties": {"Year": "1998", "Team Number": "57", "City": "Houston", "State": "Texas", "Country": "USA", "Team Name": "57: Leopards"}},{ "type": "Feature", "geometry": {"type": "Point", "coordinates": [-83.6130905
, 42.2408104]}, "properties": {"Year": "1998", "Team Number": "66", "City": "Ypsilanti", "State": "Michigan", "Country": "USA", "Team Name": "66: Grizzly Robotics"}},{ "type": "Feature", "geometry": {"type": "Point", "coordinates": [-83.444931
, 42.8523102]}, "properties": {"Year": "1998", "Team Number": "68", "City": "Ortonville", "State": "Michigan", "Country": "USA", "Team Name": "68: Truck Town Thunder"}},{ "type": "Feature", "geometry": {"type": "Point", "coordinates": [-71.004158
, 42.2522812]}, "properties": {"Year": "1998", "Team Number": "69", "City": "Quincy", "State": "Massachusetts", "Country": "USA", "Team Name": "69: HYPER"}},{ "type": "Feature", "geometry": {"type": "Point", "coordinates": [-83.5033875
, 42.9169312]}, "properties": {"Year": "1998", "Team Number": "70", "City": "Goodrich", "State": "Michigan", "Country": "USA", "Team Name": "70: More Martians"}},{ "type": "Feature", "geometry": {"type": "Point", "coordinates": [-82.7530594
, 28.1508408]}, "properties": {"Year": "1998", "Team Number": "79", "City": "Tarpon Springs", "State": "Florida", "Country": "USA", "Team Name": "79: Team Krunch"}},{ "type": "Feature", "geometry": {"type": "Point", "coordinates": [-81.6562195
, 30.3314705]}, "properties": {"Year": "1998", "Team Number": "86", "City": "Jacksonville", "State": "Florida", "Country": "USA", "Team Name": "86: Team Resistance"}},{ "type": "Feature", "geometry": {"type": "Point", "coordinates": [-83.2409286
, 42.4817505]}, "properties": {"Year": "1998", "Team Number": "94", "City": "Southfield", "State": "Michigan", "Country": "USA", "Team Name": "94: The  Technojays"}},{ "type": "Feature", "geometry": {"type": "Point", "coordinates": [-122.2530975
, 37.4293098]}, "properties": {"Year": "1998", "Team Number": "100", "City": "Woodside", "State": "California", "Country": "USA", "Team Name": "100: The WildHats"}},{ "type": "Feature", "geometry": {"type": "Point", "coordinates": [-74.6193924
, 40.5707016]}, "properties": {"Year": "1998", "Team Number": "102", "City": "Somerville", "State": "New Jersey", "Country": "USA", "Team Name": "102: The Gearheads"}},{ "type": "Feature", "geometry": {"type": "Point", "coordinates": [-122.0292816
, 37.3189583]}, "properties": {"Year": "1998", "Team Number": "115", "City": "Cupertino", "State": "California", "Country": "USA", "Team Name": "115: MVRT"}},{ "type": "Feature", "geometry": {"type": "Point", "coordinates": [-79.997467
, 40.4383392]}, "properties": {"Year": "1998", "Team Number": "117", "City": "Pittsburgh", "State": "Pennsylvania", "Country": "USA", "Team Name": "117: The Steel Dragons"}},{ "type": "Feature", "geometry": {"type": "Point", "coordinates": [-71.0567398
, 42.3586617]}, "properties": {"Year": "1998", "Team Number": "125", "City": "Boston", "State": "Massachusetts", "Country": "USA", "Team Name": "125: NUTRONs"}},{ "type": "Feature", "geometry": {"type": "Point", "coordinates": [-86.1725769
, 41.6601715]}, "properties": {"Year": "1998", "Team Number": "135", "City": "Mishawaka", "State": "Indiana", "Country": "USA", "Team Name": "135: Penn Robotics"}},{ "type": "Feature", "geometry": {"type": "Point", "coordinates": [-105.0762634
, 40.5814705]}, "properties": {"Year": "1998", "Team Number": "159", "City": "Fort Collins", "State": "Colorado", "Country": "USA", "Team Name": "159: Alpine Robotics"}},{ "type": "Feature", "geometry": {"type": "Point", "coordinates": [-91.5265274
, 41.6578217]}, "properties": {"Year": "1998", "Team Number": "167", "City": "Iowa City", "State": "Iowa", "Country": "USA", "Team Name": "167: Children of the Corn"}},{ "type": "Feature", "geometry": {"type": "Point", "coordinates": [-76.2096481
, 43.1042404]}, "properties": {"Year": "1998", "Team Number": "174", "City": "Liverpool", "State": "New York", "Country": "USA", "Team Name": "174: Arctic Warriors"}},{ "type": "Feature", "geometry": {"type": "Point", "coordinates": [-80.0640106
, 26.7834892]}, "properties": {"Year": "1998", "Team Number": "179", "City": "Riviera Beach", "State": "Florida", "Country": "USA", "Team Name": "179: Children of the Swamp"}},{ "type": "Feature", "geometry": {"type": "Point", "coordinates": [-80.2553635
, 27.1999893]}, "properties": {"Year": "1998", "Team Number": "180", "City": "Stuart", "State": "Florida", "Country": "USA", "Team Name": "180: S.P.A.M."}},{ "type": "Feature", "geometry": {"type": "Point", "coordinates": [-72.6740189
, 41.7634888]}, "properties": {"Year": "1998", "Team Number": "181", "City": "Hartford", "State": "Connecticut", "Country": "USA", "Team Name": "181: Birds Of Prey"}},{ "type": "Feature", "geometry": {"type": "Point", "coordinates": [-79.4328003
, 43.6573982]}, "properties": {"Year": "1998", "Team Number": "188", "City": "Toronto", "State": "Ontario", "Country": "Canada", "Team Name": "188: Blizzard"}},{ "type": "Feature", "geometry": {"type": "Point", "coordinates": [-72.8781281
, 41.6002197]}, "properties": {"Year": "1998", "Team Number": "195", "City": "Southington", "State": "Connecticut", "Country": "USA", "Team Name": "195: CyberKnights"}},{ "type": "Feature", "geometry": {"type": "Point", "coordinates": [-122.276207
, 37.5183411]}, "properties": {"Year": "1998", "Team Number": "199", "City": "Belmont", "State": "California", "Country": "USA", "Team Name": "199: Deep Blue"}},{ "type": "Feature", "geometry": {"type": "Point", "coordinates": [-83.1604919
, 42.6648102]}, "properties": {"Year": "1998", "Team Number": "201", "City": "Rochester Hills", "State": "Michigan", "Country": "USA", "Team Name": "201: The FEDS"}},{ "type": "Feature", "geometry": {"type": "Point", "coordinates": [-74.9708481
, 39.7179298]}, "properties": {"Year": "1998", "Team Number": "203", "City": "Sicklerville", "State": "New Jersey", "Country": "USA", "Team Name": "203: One TUFF Team (Team United for FIRST)"}},{ "type": "Feature", "geometry": {"type": "Point", "coordinates": [-74.9837723
, 39.8549995]}, "properties": {"Year": "1998", "Team Number": "204", "City": "Voorhees", "State": "New Jersey", "Country": "USA", "Team Name": "204: Eastern Robotic Vikings"}},{ "type": "Feature", "geometry": {"type": "Point", "coordinates": [-95.1962967
, 29.6908398]}, "properties": {"Year": "1998", "Team Number": "231", "City": "Pasadena", "State": "Texas", "Country": "USA", "Team Name": "231: High Voltage"}},{ "type": "Feature", "geometry": {"type": "Point", "coordinates": [-75.2853088
, 40.2405815]}, "properties": {"Year": "1998", "Team Number": "272", "City": "Lansdale", "State": "Pennsylvania", "Country": "USA", "Team Name": "272: Cyber-Crusaders"}},{ "type": "Feature", "geometry": {"type": "Point", "coordinates": [-118.3537369
, 33.91819]}, "properties": {"Year": "1999", "Team Number": "207", "City": "Hawthorne", "State": "California", "Country": "USA", "Team Name": "207: METALCRAFTERS"}},{ "type": "Feature", "geometry": {"type": "Point", "coordinates": [-72.2815018
, 42.9332008]}, "properties": {"Year": "1999", "Team Number": "213", "City": "Keene", "State": "New Hampshire", "Country": "USA", "Team Name": "213: The Dirty Birds"}},{ "type": "Feature", "geometry": {"type": "Point", "coordinates": [-85.7628937
, 42.9069214]}, "properties": {"Year": "1999", "Team Number": "216", "City": "Grandville", "State": "Michigan", "Country": "USA", "Team Name": "216: More RoboDawgs"}},{ "type": "Feature", "geometry": {"type": "Point", "coordinates": [-83.0135574
, 42.593399]}, "properties": {"Year": "1999", "Team Number": "217", "City": "Sterling Heights", "State": "Michigan", "Country": "USA", "Team Name": "217: ThunderChickens"}},{ "type": "Feature", "geometry": {"type": "Point", "coordinates": [-75.0093689
, 40.7636604]}, "properties": {"Year": "1999", "Team Number": "219", "City": "Washington", "State": "New Jersey", "Country": "USA", "Team Name": "219: Team Impact"}},{ "type": "Feature", "geometry": {"type": "Point", "coordinates": [-75.9479523
, 41.5391617]}, "properties": {"Year": "1999", "Team Number": "222", "City": "Tunkhannock", "State": "Pennsylvania", "Country": "USA", "Team Name": "222: Tigertrons"}},{ "type": "Feature", "geometry": {"type": "Point", "coordinates": [-74.2890091
, 41.0510406]}, "properties": {"Year": "1999", "Team Number": "223", "City": "Wanaque", "State": "New Jersey", "Country": "USA", "Team Name": "223: Xtreme Heat"}},{ "type": "Feature", "geometry": {"type": "Point", "coordinates": [-74.471489
, 40.5392494]}, "properties": {"Year": "1999", "Team Number": "224", "City": "Piscataway", "State": "New Jersey", "Country": "USA", "Team Name": "224: The Tribe"}},{ "type": "Feature", "geometry": {"type": "Point", "coordinates": [-76.7242889
, 39.9645309]}, "properties": {"Year": "1999", "Team Number": "225", "City": "York", "State": "Pennsylvania", "Country": "USA", "Team Name": "225: TechFire"}},{ "type": "Feature", "geometry": {"type": "Point", "coordinates": [-83.1544876
, 42.5623703]}, "properties": {"Year": "1999", "Team Number": "226", "City": "Troy", "State": "Michigan", "Country": "USA", "Team Name": "226: Hammerheads"}},{ "type": "Feature", "geometry": {"type": "Point", "coordinates": [-72.7978363
, 41.5362816]}, "properties": {"Year": "1999", "Team Number": "228", "City": "Meriden", "State": "Connecticut", "Country": "USA", "Team Name": "228: GUS Robotics"}},{ "type": "Feature", "geometry": {"type": "Point", "coordinates": [-74.9858932
, 44.6698608]}, "properties": {"Year": "1999", "Team Number": "229", "City": "Potsdam", "State": "New York", "Country": "USA", "Team Name": "229: Division By Zero"}},{ "type": "Feature", "geometry": {"type": "Point", "coordinates": [-73.1091003
, 41.3226013]}, "properties": {"Year": "1999", "Team Number": "230", "City": "Shelton", "State": "Connecticut", "Country": "USA", "Team Name": "230: Gaelhawks"}},{ "type": "Feature", "geometry": {"type": "Point", "coordinates": [-82.47229
, 28.4930878]}, "properties": {"Year": "1999", "Team Number": "233", "City": "Rockledge/Cocoa Beach", "State": "Florida", "Country": "USA", "Team Name": "233: The Pink Team"}},{ "type": "Feature", "geometry": {"type": "Point", "coordinates": [-86.1499634
, 39.7669106]}, "properties": {"Year": "1999", "Team Number": "234", "City": "Indianapolis", "State": "Indiana", "Country": "USA", "Team Name": "234: Cyber Blue"}},{ "type": "Feature", "geometry": {"type": "Point", "coordinates": [-72.3307877
, 41.3237381]}, "properties": {"Year": "1999", "Team Number": "236", "City": "Old Lyme", "State": "Connecticut", "Country": "USA", "Team Name": "236: Techno-Ticks"}},{ "type": "Feature", "geometry": {"type": "Point", "coordinates": [-73.1194
, 41.6048698]}, "properties": {"Year": "1999", "Team Number": "237", "City": "Watertown", "State": "Connecticut", "Country": "USA", "Team Name": "237: Black Magic Robotics"}},{ "type": "Feature", "geometry": {"type": "Point", "coordinates": [-71.463089
, 42.991169]}, "properties": {"Year": "1999", "Team Number": "238", "City": "Manchester", "State": "New Hampshire", "Country": "USA", "Team Name": "238: Cruisin' Crusaders"}},{ "type": "Feature", "geometry": {"type": "Point", "coordinates": [-83.3979034
, 41.9160614]}, "properties": {"Year": "1999", "Team Number": "240", "City": "Monroe", "State": "Michigan", "Country": "USA", "Team Name": "240: Tempest"}},{ "type": "Feature", "geometry": {"type": "Point", "coordinates": [-85.7628937
, 42.9069214]}, "properties": {"Year": "1999", "Team Number": "244", "City": "Grandville", "State": "Michigan", "Country": "USA", "Team Name": "244: RoboDawgs 3D"}},{ "type": "Feature", "geometry": {"type": "Point", "coordinates": [-83.1604919
, 42.6648102]}, "properties": {"Year": "1999", "Team Number": "245", "City": "Rochester Hills", "State": "Michigan", "Country": "USA", "Team Name": "245: Adambots"}},{ "type": "Feature", "geometry": {"type": "Point", "coordinates": [-71.0567398
, 42.3586617]}, "properties": {"Year": "1999", "Team Number": "246", "City": "Boston", "State": "Massachusetts", "Country": "USA", "Team Name": "246: Overclocked"}},{ "type": "Feature", "geometry": {"type": "Point", "coordinates": [-83.1838989
, 42.5028]}, "properties": {"Year": "1999", "Team Number": "247", "City": "Berkley", "State": "Michigan", "Country": "USA", "Team Name": "247: Da Bears"}},{ "type": "Feature", "geometry": {"type": "Point", "coordinates": [-73.7908478
, 42.7385406]}, "properties": {"Year": "1999", "Team Number": "250", "City": "Colonie", "State": "New York", "Country": "USA", "Team Name": "250: Dynamos"}},{ "type": "Feature", "geometry": {"type": "Point", "coordinates": [-122.3961563
, 37.6030998]}, "properties": {"Year": "1999", "Team Number": "253", "City": "Millbrae", "State": "California", "Country": "USA", "Team Name": "253: Mills Robotics Team"}},{ "type": "Feature", "geometry": {"type": "Point", "coordinates": [-121.8855667
, 37.3385811]}, "properties": {"Year": "1999", "Team Number": "254", "City": "San Jose", "State": "California", "Country": "USA", "Team Name": "254: The Cheesy Poofs"}},{ "type": "Feature", "geometry": {"type": "Point", "coordinates": [-121.8855667
, 37.3385811]}, "properties": {"Year": "1999", "Team Number": "256", "City": "San Jose", "State": "California", "Country": "USA", "Team Name": "256: Robo-Rams"}},{ "type": "Feature", "geometry": {"type": "Point", "coordinates": [-73.1320267
, 40.8352089]}, "properties": {"Year": "1999", "Team Number": "263", "City": "Lake Ronkonkoma", "State": "New York", "Country": "USA", "Team Name": "263: Sachem Aftershock"}},{ "type": "Feature", "geometry": {"type": "Point", "coordinates": [-88.4605408
, 43.1473312]}, "properties": {"Year": "1999", "Team Number": "269", "City": "Oconomowoc", "State": "Wisconsin", "Country": "USA", "Team Name": "269: CooneyTech"}},{ "type": "Feature", "geometry": {"type": "Point", "coordinates": [-73.2492218
, 40.7202301]}, "properties": {"Year": "1999", "Team Number": "271", "City": "Bay Shore", "State": "New York", "Country": "USA", "Team Name": "271: Mechanical Marauders"}},{ "type": "Feature", "geometry": {"type": "Point", "coordinates": [-83.6541672
, 41.5633507]}, "properties": {"Year": "1999", "Team Number": "279", "City": "Maumee", "State": "Ohio", "Country": "USA", "Team Name": "279: Tech Fusion"}},{ "type": "Feature", "geometry": {"type": "Point", "coordinates": [-83.2633438
, 42.2265816]}, "properties": {"Year": "1999", "Team Number": "280", "City": "Taylor", "State": "Michigan", "Country": "USA", "Team Name": "280: TnT"}},{ "type": "Feature", "geometry": {"type": "Point", "coordinates": [-82.4001083
, 34.8482704]}, "properties": {"Year": "1999", "Team Number": "281", "City": "Greenville", "State": "South Carolina", "Country": "USA", "Team Name": "281: The GreenVillains"}},{ "type": "Feature", "geometry": {"type": "Point", "coordinates": [-82.4001083
, 34.8482704]}, "properties": {"Year": "1999", "Team Number": "283", "City": "Greenville", "State": "South Carolina", "Country": "USA", "Team Name": "283: The Generals"}},{ "type": "Feature", "geometry": {"type": "Point", "coordinates": [-72.8568115
, 40.7624893]}, "properties": {"Year": "1999", "Team Number": "287", "City": "Mastic Beach", "State": "New York", "Country": "USA", "Team Name": "287: Floyd"}},{ "type": "Feature", "geometry": {"type": "Point", "coordinates": [-85.7628937
, 42.9069214]}, "properties": {"Year": "1999", "Team Number": "288", "City": "Grandville", "State": "Michigan", "Country": "USA", "Team Name": "288: The RoboDawgs"}},{ "type": "Feature", "geometry": {"type": "Point", "coordinates": [-80.0852432
, 42.1294403]}, "properties": {"Year": "1999", "Team Number": "291", "City": "Erie", "State": "Pennsylvania", "Country": "USA", "Team Name": "291: CIA - Creativity In Action"}},{ "type": "Feature", "geometry": {"type": "Point", "coordinates": [-86.2708893
, 40.4174805]}, "properties": {"Year": "1999", "Team Number": "292", "City": "Russiaville", "State": "Indiana", "Country": "USA", "Team Name": "292: PantherTech"}},{ "type": "Feature", "geometry": {"type": "Point", "coordinates": [-74.7917328
, 40.3306198]}, "properties": {"Year": "1999", "Team Number": "293", "City": "Pennington", "State": "New Jersey", "Country": "USA", "Team Name": "293: Team S.P.I.K.E."}},{ "type": "Feature", "geometry": {"type": "Point", "coordinates": [-118.3879395
, 33.8444519]}, "properties": {"Year": "1999", "Team Number": "294", "City": "Redondo Beach", "State": "California", "Country": "USA", "Team Name": "294: Beach Cities Robotics"}},{ "type": "Feature", "geometry": {"type": "Point", "coordinates": [-121.1706085
, 38.7407799]}, "properties": {"Year": "1999", "Team Number": "295", "City": "Granite Bay", "State": "California", "Country": "USA", "Team Name": "295: Grizzly Robotics Team"}},{ "type": "Feature", "geometry": {"type": "Point", "coordinates": [-73.5498962
, 45.5172005]}, "properties": {"Year": "1999", "Team Number": "296", "City": "MontrTal", "State": "QuTbec", "Country": "Canada", "Team Name": "296: Northern Knights"}},{ "type": "Feature", "geometry": {"type": "Point", "coordinates": [-83.2393112
, 42.7846718]}, "properties": {"Year": "1999", "Team Number": "302", "City": "Lake Orion", "State": "Michigan", "Country": "USA", "Team Name": "302: The Dragons"}},{ "type": "Feature", "geometry": {"type": "Point", "coordinates": [-74.6250992
, 40.5928802]}, "properties": {"Year": "1999", "Team Number": "303", "City": "Bridgewater", "State": "New Jersey", "Country": "USA", "Team Name": "303: The T.E.S.T. Team"}},{ "type": "Feature", "geometry": {"type": "Point", "coordinates": [-75.1624527
, 39.9522781]}, "properties": {"Year": "1999", "Team Number": "304", "City": "Philadelphia", "State": "Pennsylvania", "Country": "USA", "Team Name": "304: GWHS Robo Griffins"}},{ "type": "Feature", "geometry": {"type": "Point", "coordinates": [-83.4755402
, 42.5384712]}, "properties": {"Year": "1999", "Team Number": "308", "City": "Walled Lake", "State": "Michigan", "Country": "USA", "Team Name": "308: The Monsters"}},{ "type": "Feature", "geometry": {"type": "Point", "coordinates": [-83.3835373
, 42.2849312]}, "properties": {"Year": "1999", "Team Number": "313", "City": "Wayne", "State": "Michigan", "Country": "USA", "Team Name": "313: The Bionic Zebras"}},{ "type": "Feature", "geometry": {"type": "Point", "coordinates": [-83.6867905
, 43.0114403]}, "properties": {"Year": "1999", "Team Number": "314", "City": "Flint", "State": "Michigan", "Country": "USA", "Team Name": "314: The Megatron Oracles"}},{ "type": "Feature", "geometry": {"type": "Point", "coordinates": [-75.4709625
, 39.716671]}, "properties": {"Year": "1999", "Team Number": "316", "City": "Carneys Point", "State": "New Jersey", "Country": "USA", "Team Name": "316: LuNaTeCs"}},{ "type": "Feature", "geometry": {"type": "Point", "coordinates": [-71.2211914
, 43.4538803]}, "properties": {"Year": "1999", "Team Number": "319", "City": "Alton", "State": "New Hampshire", "Country": "USA", "Team Name": "319: Big Bad Bob"}},{ "type": "Feature", "geometry": {"type": "Point", "coordinates": [-75.1624527
, 39.9522781]}, "properties": {"Year": "1999", "Team Number": "321", "City": "Philadelphia", "State": "Pennsylvania", "Country": "USA", "Team Name": "321: RoboLancers"}},{ "type": "Feature", "geometry": {"type": "Point", "coordinates": [-83.6867905
, 43.0114403]}, "properties": {"Year": "1999", "Team Number": "322", "City": "Flint", "State": "Michigan", "Country": "USA", "Team Name": "322: Team F.I.R.E."}},{ "type": "Feature", "geometry": {"type": "Point", "coordinates": [-73.0061493
, 40.817131]}, "properties": {"Year": "1999", "Team Number": "329", "City": "Medford", "State": "New York", "Country": "USA", "Team Name": "329: Mohawks"}},{ "type": "Feature", "geometry": {"type": "Point", "coordinates": [-118.3953476
, 33.8640404]}, "properties": {"Year": "1999", "Team Number": "330", "City": "Hermosa Beach", "State": "California", "Country": "USA", "Team Name": "330: The Beach Bots"}},{ "type": "Feature", "geometry": {"type": "Point", "coordinates": [-73.9903564
, 40.6924515]}, "properties": {"Year": "1999", "Team Number": "333", "City": "Brooklyn", "State": "New York", "Country": "USA", "Team Name": "333: MEGALODONS"}},{ "type": "Feature", "geometry": {"type": "Point", "coordinates": [-73.9903564
, 40.6924515]}, "properties": {"Year": "1999", "Team Number": "334", "City": "Brooklyn", "State": "New York", "Country": "USA", "Team Name": "334: TechKnights"}},{ "type": "Feature", "geometry": {"type": "Point", "coordinates": [-73.9903564
, 40.6924515]}, "properties": {"Year": "1999", "Team Number": "335", "City": "Brooklyn", "State": "New York", "Country": "USA", "Team Name": "335: Skillz Tech Gear Botz"}},{ "type": "Feature", "geometry": {"type": "Point", "coordinates": [-81.9922714
, 37.8464012]}, "properties": {"Year": "2000", "Team Number": "337", "City": "Logan", "State": "West Virginia", "Country": "USA", "Team Name": "337: Hard Working Hard Hats"}},{ "type": "Feature", "geometry": {"type": "Point", "coordinates": [-77.4081726
, 38.4228783]}, "properties": {"Year": "2000", "Team Number": "339", "City": "Stafford", "State": "Virginia", "Country": "USA", "Team Name": "339: Kilroy Robotics"}},{ "type": "Feature", "geometry": {"type": "Point", "coordinates": [-77.8846664
, 43.1003418]}, "properties": {"Year": "2000", "Team Number": "340", "City": "Churchville", "State": "New York", "Country": "USA", "Team Name": "340: G.R.R. (Greater Rochester Robotics)"}},{ "type": "Feature", "geometry": {"type": "Point", "coordinates": [-75.2201614
, 40.1553383]}, "properties": {"Year": "2000", "Team Number": "341", "City": "Ambler", "State": "Pennsylvania", "Country": "USA", "Team Name": "341: Miss Daisy"}},{ "type": "Feature", "geometry": {"type": "Point", "coordinates": [-80.0092773
, 32.8767204]}, "properties": {"Year": "2000", "Team Number": "342", "City": "North Charleston", "State": "South Carolina", "Country": "USA", "Team Name": "342: Burning Magnetos"}},{ "type": "Feature", "geometry": {"type": "Point", "coordinates": [-82.9556808
, 34.6854782]}, "properties": {"Year": "2000", "Team Number": "343", "City": "Seneca", "State": "South Carolina", "Country": "USA", "Team Name": "343: Metal-In-Motion"}},{ "type": "Feature", "geometry": {"type": "Point", "coordinates": [-77.5082474
, 37.3768311]}, "properties": {"Year": "2000", "Team Number": "346", "City": "Chesterfield", "State": "Virginia", "Country": "USA", "Team Name": "346: RoboHawks"}},{ "type": "Feature", "geometry": {"type": "Point", "coordinates": [-70.8215103
, 42.1575699]}, "properties": {"Year": "2000", "Team Number": "348", "City": "Norwell", "State": "Massachusetts", "Country": "USA", "Team Name": "348: Norwell Robotics"}},{ "type": "Feature", "geometry": {"type": "Point", "coordinates": [-73.6177521
, 40.7483788]}, "properties": {"Year": "2000", "Team Number": "352", "City": "Carle Place", "State": "New York", "Country": "USA", "Team Name": "352: The Green Machine"}},{ "type": "Feature", "geometry": {"type": "Point", "coordinates": [-73.466217
, 40.7763596]}, "properties": {"Year": "2000", "Team Number": "353", "City": "Plainview", "State": "New York", "Country": "USA", "Team Name": "353: POBots"}},{ "type": "Feature", "geometry": {"type": "Point", "coordinates": [-73.9903564
, 40.6924515]}, "properties": {"Year": "2000", "Team Number": "354", "City": "Brooklyn", "State": "New York", "Country": "USA", "Team Name": "354: G-House Pirates"}},{ "type": "Feature", "geometry": {"type": "Point", "coordinates": [-73.203598
, 40.8251419]}, "properties": {"Year": "2000", "Team Number": "358", "City": "Hauppauge", "State": "New York", "Country": "USA", "Team Name": "358: Robotic Eagles"}},{ "type": "Feature", "geometry": {"type": "Point", "coordinates": [-158.1229858
, 21.5739803]}, "properties": {"Year": "2000", "Team Number": "359", "City": "Waialua", "State": "Hawaii", "Country": "USA", "Team Name": "359: Hawaiian Kids"}},{ "type": "Feature", "geometry": {"type": "Point", "coordinates": [-122.4416428
, 47.2551308]}, "properties": {"Year": "2000", "Team Number": "360", "City": "Tacoma", "State": "Washington", "Country": "USA", "Team Name": "360: The Revolution"}},{ "type": "Feature", "geometry": {"type": "Point", "coordinates": [-89.0923462
, 30.3803196]}, "properties": {"Year": "2000", "Team Number": "364", "City": "Gulfport", "State": "Mississippi", "Country": "USA", "Team Name": "364: Team Fusion"}},{ "type": "Feature", "geometry": {"type": "Point", "coordinates": [-75.5508423
, 39.7402306]}, "properties": {"Year": "2000", "Team Number": "365", "City": "Wilmington", "State": "Delaware", "Country": "USA", "Team Name": "365: Miracle Workerz"}},{ "type": "Feature", "geometry": {"type": "Point", "coordinates": [-157.8577576
, 21.3048496]}, "properties": {"Year": "2000", "Team Number": "368", "City": "Honolulu", "State": "Hawaii", "Country": "USA", "Team Name": "368: Team Kika Mana"}},{ "type": "Feature", "geometry": {"type": "Point", "coordinates": [-73.9903564
, 40.6924515]}, "properties": {"Year": "2000", "Team Number": "369", "City": "Brooklyn", "State": "New York", "Country": "USA", "Team Name": "369: High Voltage"}},{ "type": "Feature", "geometry": {"type": "Point", "coordinates": [-74.0752792
, 40.6424408]}, "properties": {"Year": "2000", "Team Number": "371", "City": "Staten Island", "State": "New York", "Country": "USA", "Team Name": "371: Cyber Warriors"}},{ "type": "Feature", "geometry": {"type": "Point", "coordinates": [-74.0752792
, 40.6424408]}, "properties": {"Year": "2000", "Team Number": "375", "City": "Staten Island", "State": "New York", "Country": "USA", "Team Name": "375: Robotic Plague"}},{ "type": "Feature", "geometry": {"type": "Point", "coordinates": [-78.7087021
, 43.2901993]}, "properties": {"Year": "2000", "Team Number": "378", "City": "Newfane", "State": "New York", "Country": "USA", "Team Name": "378: The Circuit Stompers"}},{ "type": "Feature", "geometry": {"type": "Point", "coordinates": [-80.7033005
, 41.1540184]}, "properties": {"Year": "2000", "Team Number": "379", "City": "Girard", "State": "Ohio", "Country": "USA", "Team Name": "379: RoboCats"}},{ "type": "Feature", "geometry": {"type": "Point", "coordinates": [-51.2280083
, -30.0341492]}, "properties": {"Year": "2000", "Team Number": "383", "City": "Porto Alegre", "State": "Rio Grande do Sul", "Country": "Brazil", "Team Name": "383: Brazilian Machine"}},{ "type": "Feature", "geometry": {"type": "Point", "coordinates": [-77.4336472
, 37.540699]}, "properties": {"Year": "2000", "Team Number": "384", "City": "Richmond", "State": "Virginia", "Country": "USA", "Team Name": "384: Sparky 384"}},{ "type": "Feature", "geometry": {"type": "Point", "coordinates": [-80.6071777
, 28.0794296]}, "properties": {"Year": "2000", "Team Number": "386", "City": "Melbourne", "State": "Florida", "Country": "USA", "Team Name": "386: Team Voltage"}},{ "type": "Feature", "geometry": {"type": "Point", "coordinates": [-73.8860092
, 40.8372917]}, "properties": {"Year": "2000", "Team Number": "395", "City": "Bronx", "State": "New York", "Country": "USA", "Team Name": "395: 2 TrainRobotics"}},{ "type": "Feature", "geometry": {"type": "Point", "coordinates": [-118.144783
, 34.6988983]}, "properties": {"Year": "2000", "Team Number": "399", "City": "Lancaster", "State": "California", "Country": "USA", "Team Name": "399: Eagle Robotics"}},{ "type": "Feature", "geometry": {"type": "Point", "coordinates": [-80.4084091
, 37.1301384]}, "properties": {"Year": "2000", "Team Number": "401", "City": "Christiansburg", "State": "Virginia", "Country": "USA", "Team Name": "401: Copperhead Robotics"}},{ "type": "Feature", "geometry": {"type": "Point", "coordinates": [-97.7429886
, 30.2675896]}, "properties": {"Year": "2000", "Team Number": "418", "City": "Austin", "State": "Texas", "Country": "USA", "Team Name": "418: Purple Haze"}},{ "type": "Feature", "geometry": {"type": "Point", "coordinates": [-77.4336472
, 37.540699]}, "properties": {"Year": "2000", "Team Number": "422", "City": "Richmond", "State": "Virginia", "Country": "USA", "Team Name": "422: Mech Tech Dragons"}},{ "type": "Feature", "geometry": {"type": "Point", "coordinates": [-75.1499023
, 40.0921898]}, "properties": {"Year": "2000", "Team Number": "423", "City": "Wyncote", "State": "Pennsylvania", "Country": "USA", "Team Name": "423: Simple Machines"}},{ "type": "Feature", "geometry": {"type": "Point", "coordinates": [-75.2109299
, 40.1051407]}, "properties": {"Year": "2000", "Team Number": "433", "City": "Flourtown", "State": "Pennsylvania", "Country": "USA", "Team Name": "433: Firebirds"}},{ "type": "Feature", "geometry": {"type": "Point", "coordinates": [-78.6426697
, 35.785511]}, "properties": {"Year": "2000", "Team Number": "435", "City": "Raleigh", "State": "North Carolina", "Country": "USA", "Team Name": "435: Robodogs"}},{ "type": "Feature", "geometry": {"type": "Point", "coordinates": [-95.3697815
, 29.7604504]}, "properties": {"Year": "2000", "Team Number": "441", "City": "Houston", "State": "Texas", "Country": "USA", "Team Name": "441: DEVIL DOGS"}},{ "type": "Feature", "geometry": {"type": "Point", "coordinates": [-86.5849762
, 34.7291298]}, "properties": {"Year": "2000", "Team Number": "442", "City": "Huntsville", "State": "Alabama", "Country": "USA", "Team Name": "442: Redstone Robotics"}},{ "type": "Feature", "geometry": {"type": "Point", "coordinates": [-85.678688
, 40.1021614]}, "properties": {"Year": "2000", "Team Number": "447", "City": "Anderson", "State": "Indiana", "Country": "USA", "Team Name": "447: Team Roboto"}},{ "type": "Feature", "geometry": {"type": "Point", "coordinates": [-77.0288696
, 38.9966812]}, "properties": {"Year": "2000", "Team Number": "449", "City": "Silver Spring", "State": "Maryland", "Country": "USA", "Team Name": "449: The Blair Robot Project"}},{ "type": "Feature", "geometry": {"type": "Point", "coordinates": [-83.6541672
, 41.5633507]}, "properties": {"Year": "2000", "Team Number": "451", "City": "Maumee", "State": "Ohio", "Country": "USA", "Team Name": "451: The Cat Attack"}},{ "type": "Feature", "geometry": {"type": "Point", "coordinates": [-82.933548
, 42.6005402]}, "properties": {"Year": "2000", "Team Number": "453", "City": "Clinton Township", "State": "Michigan", "Country": "USA", "Team Name": "453: Rockem Sockem Robotics"}},{ "type": "Feature", "geometry": {"type": "Point", "coordinates": [-90.8815536
, 32.3500404]}, "properties": {"Year": "2000", "Team Number": "456", "City": "Vicksburg", "State": "Mississippi", "Country": "USA", "Team Name": "456: Siege Robotics"}},{ "type": "Feature", "geometry": {"type": "Point", "coordinates": [-98.4946136
, 29.4245796]}, "properties": {"Year": "2000", "Team Number": "457", "City": "San Antonio", "State": "Texas", "Country": "USA", "Team Name": "457: Grease Monkeys"}},{ "type": "Feature", "geometry": {"type": "Point", "coordinates": [-86.9136505
, 40.4310417]}, "properties": {"Year": "2000", "Team Number": "461", "City": "West Lafayette", "State": "Indiana", "Country": "USA", "Team Name": "461: Westside Boiler Invasion"}},{ "type": "Feature", "geometry": {"type": "Point", "coordinates": [-71.718399
, 42.2937508]}, "properties": {"Year": "2000", "Team Number": "467", "City": "Shrewsbury", "State": "Massachusetts", "Country": "USA", "Team Name": "467: The Colonials"}},{ "type": "Feature", "geometry": {"type": "Point", "coordinates": [-83.6867905
, 43.0114403]}, "properties": {"Year": "2000", "Team Number": "468", "City": "Flint", "State": "Michigan", "Country": "USA", "Team Name": "468: Aftershock"}},{ "type": "Feature", "geometry": {"type": "Point", "coordinates": [-83.2424469
, 42.5842094]}, "properties": {"Year": "2000", "Team Number": "469", "City": "Bloomfield Hills", "State": "Michigan", "Country": "USA", "Team Name": "469: Las Guerrillas"}},{ "type": "Feature", "geometry": {"type": "Point", "coordinates": [-83.6130905
, 42.2408104]}, "properties": {"Year": "2000", "Team Number": "470", "City": "Ypsilanti", "State": "Michigan", "Country": "USA", "Team Name": "470: Grizzly Robotics"}},{ "type": "Feature", "geometry": {"type": "Point", "coordinates": [-75.3077621
, 39.9807587]}, "properties": {"Year": "2000", "Team Number": "484", "City": "Havertown", "State": "Pennsylvania", "Country": "USA", "Team Name": "484: Roboforce"}},{ "type": "Feature", "geometry": {"type": "Point", "coordinates": [-75.3657532
, 39.8933907]}, "properties": {"Year": "2000", "Team Number": "486", "City": "Wallingford", "State": "Pennsylvania", "Country": "USA", "Team Name": "486: Positronic Panthers"}},{ "type": "Feature", "geometry": {"type": "Point", "coordinates": [-122.3294525
, 47.603569]}, "properties": {"Year": "2000", "Team Number": "488", "City": "Seattle", "State": "Washington", "Country": "USA", "Team Name": "488: Team XBot"}},{ "type": "Feature", "geometry": {"type": "Point", "coordinates": [-122.187851
, 47.6100197]}, "properties": {"Year": "2001", "Team Number": "492", "City": "Bellevue", "State": "Washington", "Country": "USA", "Team Name": "492: Titan Robotics Club"}},{ "type": "Feature", "geometry": {"type": "Point", "coordinates": [-83.5033875
, 42.9169312]}, "properties": {"Year": "2001", "Team Number": "494", "City": "Goodrich", "State": "Michigan", "Country": "USA", "Team Name": "494: Martians"}},{ "type": "Feature", "geometry": {"type": "Point", "coordinates": [-73.0710373
, 40.9460182]}, "properties": {"Year": "2001", "Team Number": "496", "City": "Port Jefferson", "State": "New York", "Country": "USA", "Team Name": "496: Royals"}},{ "type": "Feature", "geometry": {"type": "Point", "coordinates": [-112.1862717
, 33.5386086]}, "properties": {"Year": "2001", "Team Number": "498", "City": "Glendale", "State": "Arizona", "Country": "USA", "Team Name": "498: Cobra Commanders"}},{ "type": "Feature", "geometry": {"type": "Point", "coordinates": [-71.463089
, 42.991169]}, "properties": {"Year": "2001", "Team Number": "501", "City": "Manchester", "State": "New Hampshire", "Country": "USA", "Team Name": "501: The PowerKnights"}},{ "type": "Feature", "geometry": {"type": "Point", "coordinates": [-83.4862823
, 42.466259]}, "properties": {"Year": "2001", "Team Number": "503", "City": "Novi", "State": "Michigan", "Country": "USA", "Team Name": "503: Frog Force"}},{ "type": "Feature", "geometry": {"type": "Point", "coordinates": [-71.5166931
, 42.9463806]}, "properties": {"Year": "2001", "Team Number": "509", "City": "Bedford", "State": "New Hampshire", "Country": "USA", "Team Name": "509: Red Storm"}},{ "type": "Feature", "geometry": {"type": "Point", "coordinates": [-73.0092316
, 40.9569397]}, "properties": {"Year": "2001", "Team Number": "514", "City": "Miller Place", "State": "New York", "Country": "USA", "Team Name": "514: Miller Place Robotics"}},{ "type": "Feature", "geometry": {"type": "Point", "coordinates": [-92.445549
, 42.528141]}, "properties": {"Year": "2001", "Team Number": "525", "City": "Cedar Falls", "State": "Iowa", "Country": "USA", "Team Name": "525: Swartdogs"}},{ "type": "Feature", "geometry": {"type": "Point", "coordinates": [-75.6107025
, 42.9370842]}, "properties": {"Year": "2001", "Team Number": "527", "City": "No. Massapequa", "State": "New York", "Country": "USA", "Team Name": "527: Red Dragons"}},{ "type": "Feature", "geometry": {"type": "Point", "coordinates": [-73.3674316
, 40.6816711]}, "properties": {"Year": "2001", "Team Number": "533", "City": "Lindenhurst", "State": "New York", "Country": "USA", "Team Name": "533: The PSIcotics"}},{ "type": "Feature", "geometry": {"type": "Point", "coordinates": [-88.221199
, 43.1337395]}, "properties": {"Year": "2001", "Team Number": "537", "City": "Sussex", "State": "Wisconsin", "Country": "USA", "Team Name": "537: Charger Robotics"}},{ "type": "Feature", "geometry": {"type": "Point", "coordinates": [-86.4953537
, 34.3228683]}, "properties": {"Year": "2001", "Team Number": "538", "City": "Arab", "State": "Alabama", "Country": "USA", "Team Name": "538: Dragon Slayers"}},{ "type": "Feature", "geometry": {"type": "Point", "coordinates": [-77.4336472
, 37.540699]}, "properties": {"Year": "2001", "Team Number": "539", "City": "Richmond", "State": "Virginia", "Country": "USA", "Team Name": "539: Titan Robotics"}},{ "type": "Feature", "geometry": {"type": "Point", "coordinates": [-77.3778534
, 37.5180397]}, "properties": {"Year": "2001", "Team Number": "540", "City": "Henrico", "State": "Virginia", "Country": "USA", "Team Name": "540: TALON 540 Godwin Robotics"}},{ "type": "Feature", "geometry": {"type": "Point", "coordinates": [-73.5127335
, 40.7259483]}, "properties": {"Year": "2001", "Team Number": "545", "City": "Levittown", "State": "New York", "Country": "USA", "Team Name": "545: ROBO-DAWGS"}},{ "type": "Feature", "geometry": {"type": "Point", "coordinates": [-86.5705109
, 35.1526794]}, "properties": {"Year": "2001", "Team Number": "547", "City": "Fayetteville", "State": "Tennessee", "Country": "USA", "Team Name": "547: F.E.A.R."}},{ "type": "Feature", "geometry": {"type": "Point", "coordinates": [-83.507103
, 42.4366989]}, "properties": {"Year": "2001", "Team Number": "548", "City": "Northville", "State": "Michigan", "Country": "USA", "Team Name": "548: Robostangs"}},{ "type": "Feature", "geometry": {"type": "Point", "coordinates": [-84.4489136
, 39.08078]}, "properties": {"Year": "2001", "Team Number": "554", "City": "Ft. Thomas", "State": "Kentucky", "Country": "USA", "Team Name": "554: The Bluegrease Crew"}},{ "type": "Feature", "geometry": {"type": "Point", "coordinates": [-74.2161484
, 40.8174019]}, "properties": {"Year": "2001", "Team Number": "555", "City": "Montclair", "State": "New Jersey", "Country": "USA", "Team Name": "555: Montclair Robotics"}},{ "type": "Feature", "geometry": {"type": "Point", "coordinates": [-72.9246216
, 41.307621]}, "properties": {"Year": "2001", "Team Number": "558", "City": "New Haven", "State": "Connecticut", "Country": "USA", "Team Name": "558: Elm City Robo Squad"}},{ "type": "Feature", "geometry": {"type": "Point", "coordinates": [-72.9407425
, 40.8834496]}, "properties": {"Year": "2001", "Team Number": "564", "City": "Middle Island", "State": "New York", "Country": "USA", "Team Name": "564: Longwood Robotics"}},{ "type": "Feature", "geometry": {"type": "Point", "coordinates": [-149.8583832
, 61.2175598]}, "properties": {"Year": "2001", "Team Number": "568", "City": "Anchorage", "State": "Alaska", "Country": "USA", "Team Name": "568: Nerds of the North"}},{ "type": "Feature", "geometry": {"type": "Point", "coordinates": [-73.5868301
, 40.7570992]}, "properties": {"Year": "2001", "Team Number": "569", "City": "Westbury", "State": "New York", "Country": "USA", "Team Name": "569: Rambots"}},{ "type": "Feature", "geometry": {"type": "Point", "coordinates": [-72.6435089
, 41.8517494]}, "properties": {"Year": "2001", "Team Number": "571", "City": "Windsor", "State": "Connecticut", "Country": "USA", "Team Name": "571: Team Paragon"}},{ "type": "Feature", "geometry": {"type": "Point", "coordinates": [-83.2424469
, 42.5842094]}, "properties": {"Year": "2001", "Team Number": "573", "City": "Bloomfield Hills", "State": "Michigan", "Country": "USA", "Team Name": "573: Mech Warriors"}},{ "type": "Feature", "geometry": {"type": "Point", "coordinates": [-77.4419403
, 43.1009712]}, "properties": {"Year": "2001", "Team Number": "578", "City": "Fairport", "State": "New York", "Country": "USA", "Team Name": "578: R-cubed  - Red Raider Robotics"}},{ "type": "Feature", "geometry": {"type": "Point", "coordinates": [-118.3891754
, 34.1399727]}, "properties": {"Year": "2001", "Team Number": "580", "City": "Studio City", "State": "California", "Country": "USA", "Team Name": "580: Viking Robotics"}},{ "type": "Feature", "geometry": {"type": "Point", "coordinates": [-121.8855667
, 37.3385811]}, "properties": {"Year": "2001", "Team Number": "581", "City": "San Jose", "State": "California", "Country": "USA", "Team Name": "581: Blazing Bulldogs"}},{ "type": "Feature", "geometry": {"type": "Point", "coordinates": [-118.4491119
, 35.1322403]}, "properties": {"Year": "2001", "Team Number": "585", "City": "Tehachapi", "State": "California", "Country": "USA", "Team Name": "585: Cyber Penguins"}},{ "type": "Feature", "geometry": {"type": "Point", "coordinates": [-79.0994415
, 36.07621]}, "properties": {"Year": "2001", "Team Number": "587", "City": "Hillsborough", "State": "North Carolina", "Country": "USA", "Team Name": "587: Hedgehogs"}},{ "type": "Feature", "geometry": {"type": "Point", "coordinates": [-118.2483597
, 34.2293892]}, "properties": {"Year": "2001", "Team Number": "589", "City": "La Crescenta", "State": "California", "Country": "USA", "Team Name": "589: Falkon Robotics"}},{ "type": "Feature", "geometry": {"type": "Point", "coordinates": [-90.8120117
, 33.5589218]}, "properties": {"Year": "2001", "Team Number": "590", "City": "Choctaw", "State": "Mississippi", "Country": "USA", "Team Name": "590: Chahta Warriors"}},{ "type": "Feature", "geometry": {"type": "Point", "coordinates": [-118.2453232
, 34.0534897]}, "properties": {"Year": "2001", "Team Number": "597", "City": "Los Angeles", "State": "California", "Country": "USA", "Team Name": "597: The Wolverines"}},{ "type": "Feature", "geometry": {"type": "Point", "coordinates": [-118.507637
, 34.2897377]}, "properties": {"Year": "2001", "Team Number": "599", "City": "Granada Hills", "State": "California", "Country": "USA", "Team Name": "599: Robodox"}},{ "type": "Feature", "geometry": {"type": "Point", "coordinates": [-72.5200272
, 40.8729401]}, "properties": {"Year": "2001", "Team Number": "601", "City": "Hampton Bays", "State": "New York", "Country": "USA", "Team Name": "601: BayBots"}},{ "type": "Feature", "geometry": {"type": "Point", "coordinates": [-121.8855667
, 37.3385811]}, "properties": {"Year": "2001", "Team Number": "604", "City": "San Jose", "State": "California", "Country": "USA", "Team Name": "604: Quixilver"}},{ "type": "Feature", "geometry": {"type": "Point", "coordinates": [-118.2453232
, 34.0534897]}, "properties": {"Year": "2001", "Team Number": "606", "City": "Los Angeles", "State": "California", "Country": "USA", "Team Name": "606: Cyber Eagles"}},{ "type": "Feature", "geometry": {"type": "Point", "coordinates": [-79.4328003
, 43.6573982]}, "properties": {"Year": "2001", "Team Number": "610", "City": "Toronto", "State": "Ontario", "Country": "Canada", "Team Name": "610: Crescent Robotics"}},{ "type": "Feature", "geometry": {"type": "Point", "coordinates": [-77.1842804
, 38.9365196]}, "properties": {"Year": "2001", "Team Number": "611", "City": "McLean", "State": "Virginia", "Country": "USA", "Team Name": "611: Saxons"}},{ "type": "Feature", "geometry": {"type": "Point", "coordinates": [-77.4397507
, 38.8835983]}, "properties": {"Year": "2001", "Team Number": "612", "City": "Chantilly", "State": "Virginia", "Country": "USA", "Team Name": "612: Chantilly Robotics"}},{ "type": "Feature", "geometry": {"type": "Point", "coordinates": [-74.5229721
, 40.4983292]}, "properties": {"Year": "2001", "Team Number": "613", "City": "Somerset", "State": "New Jersey", "Country": "USA", "Team Name": "613: NeoWarriors"}},{ "type": "Feature", "geometry": {"type": "Point", "coordinates": [-77.0434113
, 38.8045998]}, "properties": {"Year": "2001", "Team Number": "614", "City": "Alexandria", "State": "Virginia", "Country": "USA", "Team Name": "614: Night Hawks"}},{ "type": "Feature", "geometry": {"type": "Point", "coordinates": [-77.327301
, 37.5456581]}, "properties": {"Year": "2001", "Team Number": "617", "City": "Highland Springs", "State": "Virginia", "Country": "USA", "Team Name": "617: Enginerds"}},{ "type": "Feature", "geometry": {"type": "Point", "coordinates": [-78.4775314
, 38.0321312]}, "properties": {"Year": "2001", "Team Number": "619", "City": "Charlottesville", "State": "Virginia", "Country": "USA", "Team Name": "619: Cavalier Robotics"}},{ "type": "Feature", "geometry": {"type": "Point", "coordinates": [-77.263649
, 38.9003716]}, "properties": {"Year": "2001", "Team Number": "620", "City": "Vienna", "State": "Virginia", "Country": "USA", "Team Name": "620: Warbots"}},{ "type": "Feature", "geometry": {"type": "Point", "coordinates": [-77.263649
, 38.9003716]}, "properties": {"Year": "2001", "Team Number": "623", "City": "Vienna", "State": "Virginia", "Country": "USA", "Team Name": "623: Cougar Robotics"}},{ "type": "Feature", "geometry": {"type": "Point", "coordinates": [-95.8287964
, 29.7674007]}, "properties": {"Year": "2001", "Team Number": "624", "City": "Katy", "State": "Texas", "Country": "USA", "Team Name": "624: CRyptonite"}},{ "type": "Feature", "geometry": {"type": "Point", "coordinates": [-76.4954605
, 42.4405098]}, "properties": {"Year": "2001", "Team Number": "639", "City": "Ithaca", "State": "New York", "Country": "USA", "Team Name": "639: Code Red Robotics"}},{ "type": "Feature", "geometry": {"type": "Point", "coordinates": [-73.7955704
, 40.6981926]}, "properties": {"Year": "2001", "Team Number": "640", "City": "Jamaica", "State": "New York", "Country": "USA", "Team Name": "640: Robo Elite"}},{ "type": "Feature", "geometry": {"type": "Point", "coordinates": [-97.7271118
, 31.1168308]}, "properties": {"Year": "2001", "Team Number": "647", "City": "Killeen", "State": "Texas", "Country": "USA", "Team Name": "647: Cyberwolves"}},{ "type": "Feature", "geometry": {"type": "Point", "coordinates": [-93.4999695
, 42.0746994]}, "properties": {"Year": "2001", "Team Number": "648", "City": "Quad Cities", "State": "Iowa", "Country": "USA", "Team Name": "648: QC ELITE - Flaming Squirrels"}},{ "type": "Feature", "geometry": {"type": "Point", "coordinates": [-122.0140076
, 37.2710495]}, "properties": {"Year": "2001", "Team Number": "649", "City": "Saratoga", "State": "California", "Country": "USA", "Team Name": "649: M-SET Fish"}},{ "type": "Feature", "geometry": {"type": "Point", "coordinates": [-98.4946136
, 29.4245796]}, "properties": {"Year": "2001", "Team Number": "653", "City": "San Antonio", "State": "Texas", "Country": "USA", "Team Name": "653: NOSIDE"}},{ "type": "Feature", "geometry": {"type": "Point", "coordinates": [-104.8218079
, 38.8334312]}, "properties": {"Year": "2001", "Team Number": "662", "City": "Colorado Springs", "State": "Colorado", "Country": "USA", "Team Name": "662: Rocky Mtn. Robotics"}},{ "type": "Feature", "geometry": {"type": "Point", "coordinates": [-71.6685791
, 42.1157799]}, "properties": {"Year": "2001", "Team Number": "663", "City": "Whitinsville", "State": "Massachusetts", "Country": "USA", "Team Name": "663: Robonauts"}},{ "type": "Feature", "geometry": {"type": "Point", "coordinates": [-121.8855667
, 37.3385811]}, "properties": {"Year": "2001", "Team Number": "668", "City": "San Jose", "State": "California", "Country": "USA", "Team Name": "668: The Apes of Wrath"}},{ "type": "Feature", "geometry": {"type": "Point", "coordinates": [-122.0292816
, 37.3189583]}, "properties": {"Year": "2001", "Team Number": "670", "City": "Cupertino", "State": "California", "Country": "USA", "Team Name": "670: Homestead Robotics"}},{ "type": "Feature", "geometry": {"type": "Point", "coordinates": [-83.0027466
, 39.9619904]}, "properties": {"Year": "2001", "Team Number": "677", "City": "Columbus", "State": "Ohio", "Country": "USA", "Team Name": "677: Murphy's Outlaws"}},{ "type": "Feature", "geometry": {"type": "Point", "coordinates": [-77.3505173
, 39.4816208]}, "properties": {"Year": "2001", "Team Number": "686", "City": "Walkersville", "State": "Maryland", "Country": "USA", "Team Name": "686: Bovine Intervention"}},{ "type": "Feature", "geometry": {"type": "Point", "coordinates": [-118.2621231
, 33.8316116]}, "properties": {"Year": "2001", "Team Number": "687", "City": "Carson", "State": "California", "Country": "USA", "Team Name": "687: The Nerd Herd"}},{ "type": "Feature", "geometry": {"type": "Point", "coordinates": [-118.5518799
, 34.4134712]}, "properties": {"Year": "2001", "Team Number": "691", "City": "Santa Clarita", "State": "California", "Country": "USA", "Team Name": "691: Project 691"}},{ "type": "Feature", "geometry": {"type": "Point", "coordinates": [-121.4908981
, 38.5793304]}, "properties": {"Year": "2001", "Team Number": "692", "City": "Sacramento", "State": "California", "Country": "USA", "Team Name": "692: The Fembots"}},{ "type": "Feature", "geometry": {"type": "Point", "coordinates": [-73.8317032
, 40.7820015]}, "properties": {"Year": "2001", "Team Number": "694", "City": "New York", "State": "New York", "Country": "USA", "Team Name": "694: StuyPulse"}},{ "type": "Feature", "geometry": {"type": "Point", "coordinates": [-81.5028992
, 41.486351]}, "properties": {"Year": "2001", "Team Number": "695", "City": "Beachwood", "State": "Ohio", "Country": "USA", "Team Name": "695: FIRST Responders"}},{ "type": "Feature", "geometry": {"type": "Point", "coordinates": [-118.2483597
, 34.2293892]}, "properties": {"Year": "2001", "Team Number": "696", "City": "La Crescenta", "State": "California", "Country": "USA", "Team Name": "696: Circuit Breakers"}},{ "type": "Feature", "geometry": {"type": "Point", "coordinates": [-111.8408279
, 33.3033791]}, "properties": {"Year": "2001", "Team Number": "698", "City": "Chandler", "State": "Arizona", "Country": "USA", "Team Name": "698: Hamilton Microbots"}},{ "type": "Feature", "geometry": {"type": "Point", "coordinates": [-122.0438766
, 38.2492294]}, "properties": {"Year": "2001", "Team Number": "701", "City": "Fairfield", "State": "California", "Country": "USA", "Team Name": "701: RoboVikes"}},{ "type": "Feature", "geometry": {"type": "Point", "coordinates": [-118.3962097
, 34.0216103]}, "properties": {"Year": "2001", "Team Number": "702", "City": "Culver City", "State": "California", "Country": "USA", "Team Name": "702: Bagel Bytes"}},{ "type": "Feature", "geometry": {"type": "Point", "coordinates": [-83.9466705
, 43.4191818]}, "properties": {"Year": "2001", "Team Number": "703", "City": "Saginaw", "State": "Michigan", "Country": "USA", "Team Name": "703: Team Phoenix"}},{ "type": "Feature", "geometry": {"type": "Point", "coordinates": [-97.0072021
, 32.7476997]}, "properties": {"Year": "2001", "Team Number": "704", "City": "Grand Prairie", "State": "Texas", "Country": "USA", "Team Name": "704: Warriors"}},{ "type": "Feature", "geometry": {"type": "Point", "coordinates": [-88.3479538
, 43.1033592]}, "properties": {"Year": "2001", "Team Number": "706", "City": "Hartland", "State": "Wisconsin", "Country": "USA", "Team Name": "706: Cyberhawks"}},{ "type": "Feature", "geometry": {"type": "Point", "coordinates": [-75.1309662
, 40.1797409]}, "properties": {"Year": "2001", "Team Number": "708", "City": "Horsham", "State": "Pennsylvania", "Country": "USA", "Team Name": "708: Hatters Robotics"}},{ "type": "Feature", "geometry": {"type": "Point", "coordinates": [-75.3154068
, 40.0314102]}, "properties": {"Year": "2001", "Team Number": "709", "City": "Bryn Mawr", "State": "Pennsylvania", "Country": "USA", "Team Name": "709: Femme Tech Fatale"}},{ "type": "Feature", "geometry": {"type": "Point", "coordinates": [-74.1742096
, 40.7319717]}, "properties": {"Year": "2001", "Team Number": "714", "City": "Newark", "State": "New Jersey", "Country": "USA", "Team Name": "714: panthera"}},{ "type": "Feature", "geometry": {"type": "Point", "coordinates": [-73.3569412
, 41.975811]}, "properties": {"Year": "2001", "Team Number": "716", "City": "Falls Village", "State": "Connecticut", "Country": "USA", "Team Name": "716: Who'sCTEKS"}},{ "type": "Feature", "geometry": {"type": "Point", "coordinates": [-73.8860092
, 40.8372917]}, "properties": {"Year": "2002", "Team Number": "743", "City": "Bronx", "State": "New York", "Country": "USA", "Team Name": "743: Technobots"}},{ "type": "Feature", "geometry": {"type": "Point", "coordinates": [-80.1435623
, 26.1236706]}, "properties": {"Year": "2002", "Team Number": "744", "City": "Ft. Lauderdale", "State": "Florida", "Country": "USA", "Team Name": "744: Shark Attack"}},{ "type": "Feature", "geometry": {"type": "Point", "coordinates": [-79.4328003
, 43.6573982]}, "properties": {"Year": "2002", "Team Number": "746", "City": "Torornto", "State": "Ontario", "Country": "Canada", "Team Name": "746: Gearheads"}},{ "type": "Feature", "geometry": {"type": "Point", "coordinates": [-122.2286835
, 37.3823586]}, "properties": {"Year": "2002", "Team Number": "751", "City": "Portola Valley", "State": "California", "Country": "USA", "Team Name": "751: barn2robotics"}},{ "type": "Feature", "geometry": {"type": "Point", "coordinates": [-74.1742096
, 40.7319717]}, "properties": {"Year": "2002", "Team Number": "752", "City": "Newark", "State": "New Jersey", "Country": "USA", "Team Name": "752: The Chargers"}},{ "type": "Feature", "geometry": {"type": "Point", "coordinates": [-121.3158112
, 44.0573883]}, "properties": {"Year": "2002", "Team Number": "753", "City": "Bend", "State": "Oregon", "Country": "USA", "Team Name": "753: High Desert Droids"}},{ "type": "Feature", "geometry": {"type": "Point", "coordinates": [-122.1977997
, 37.4624786]}, "properties": {"Year": "2002", "Team Number": "766", "City": "Atherton", "State": "California", "Country": "USA", "Team Name": "766: M-A Bears"}},{ "type": "Feature", "geometry": {"type": "Point", "coordinates": [-79.626503
, 43.4813995]}, "properties": {"Year": "2002", "Team Number": "771", "City": "Oakville", "State": "Ontario", "Country": "Canada", "Team Name": "771: SWAT"}},{ "type": "Feature", "geometry": {"type": "Point", "coordinates": [-83.0608673
, 42.2455482]}, "properties": {"Year": "2002", "Team Number": "772", "City": "LaSalle", "State": "Ontario", "Country": "Canada", "Team Name": "772: Sabre Bytes"}},{ "type": "Feature", "geometry": {"type": "Point", "coordinates": [-81.6155014
, 44.1795006]}, "properties": {"Year": "2002", "Team Number": "781", "City": "Kincardine", "State": "Ontario", "Country": "Canada", "Team Name": "781: Kinetic Knights"}},{ "type": "Feature", "geometry": {"type": "Point", "coordinates": [-80.6859894
, 28.35709]}, "properties": {"Year": "2002", "Team Number": "801", "City": "Merritt Island", "State": "Florida", "Country": "USA", "Team Name": "801: Horsepower"}},{ "type": "Feature", "geometry": {"type": "Point", "coordinates": [-73.9903564
, 40.6924515]}, "properties": {"Year": "2002", "Team Number": "806", "City": "Brooklyn", "State": "New York", "Country": "USA", "Team Name": "806: The Brooklyn Blacksmiths"}},{ "type": "Feature", "geometry": {"type": "Point", "coordinates": [-73.1978683
, 40.8550987]}, "properties": {"Year": "2002", "Team Number": "810", "City": "Smithtown", "State": "New York", "Country": "USA", "Team Name": "810: The Mechanical Bulls"}},{ "type": "Feature", "geometry": {"type": "Point", "coordinates": [-71.4643326
, 42.7586212]}, "properties": {"Year": "2002", "Team Number": "811", "City": "Nashua", "State": "New Hampshire", "Country": "USA", "Team Name": "811: Cardinals"}},{ "type": "Feature", "geometry": {"type": "Point", "coordinates": [-117.1617203
, 32.7156906]}, "properties": {"Year": "2002", "Team Number": "812", "City": "San Diego", "State": "California", "Country": "USA", "Team Name": "812: The Midnight Mechanics"}},{ "type": "Feature", "geometry": {"type": "Point", "coordinates": [-83.220047
, 42.2639198]}, "properties": {"Year": "2002", "Team Number": "815", "City": "Allen Park", "State": "Michigan", "Country": "USA", "Team Name": "815: Advanced Power"}},{ "type": "Feature", "geometry": {"type": "Point", "coordinates": [-74.8361511
, 40.0083313]}, "properties": {"Year": "2002", "Team Number": "816", "City": "Westampton", "State": "New Jersey", "Country": "USA", "Team Name": "816: Anomaly"}},{ "type": "Feature", "geometry": {"type": "Point", "coordinates": [-83.0285187
, 42.5111084]}, "properties": {"Year": "2002", "Team Number": "818", "City": "Warren", "State": "Michigan", "Country": "USA", "Team Name": "818: Steel Armadillos"}},{ "type": "Feature", "geometry": {"type": "Point", "coordinates": [-86.1499634
, 39.7669106]}, "properties": {"Year": "2002", "Team Number": "829", "City": "Indianapolis", "State": "Indiana", "Country": "USA", "Team Name": "829: Digital Goats"}},{ "type": "Feature", "geometry": {"type": "Point", "coordinates": [-83.7484665
, 42.2821007]}, "properties": {"Year": "2002", "Team Number": "830", "City": "Ann Arbor", "State": "Michigan", "Country": "USA", "Team Name": "830: The RatPack"}},{ "type": "Feature", "geometry": {"type": "Point", "coordinates": [-84.3602982
, 34.0216599]}, "properties": {"Year": "2002", "Team Number": "832", "City": "Roswell", "State": "Georgia", "Country": "USA", "Team Name": "832: Oscar"}},{ "type": "Feature", "geometry": {"type": "Point", "coordinates": [-75.3950272
, 40.5338898]}, "properties": {"Year": "2002", "Team Number": "834", "City": "Center Valley", "State": "Pennsylvania", "Country": "USA", "Team Name": "834: SparTechs"}},{ "type": "Feature", "geometry": {"type": "Point", "coordinates": [-83.2274399
, 42.5169983]}, "properties": {"Year": "2002", "Team Number": "835", "City": "Beverly Hills", "State": "Michigan", "Country": "USA", "Team Name": "835: The Sting"}},{ "type": "Feature", "geometry": {"type": "Point", "coordinates": [-76.5725098
, 38.3457794]}, "properties": {"Year": "2002", "Team Number": "836", "City": "Hollywood", "State": "Maryland", "Country": "USA", "Team Name": "836: The RoboBees"}},{ "type": "Feature", "geometry": {"type": "Point", "coordinates": [-72.6261215
, 42.0890198]}, "properties": {"Year": "2002", "Team Number": "839", "City": "Agawam", "State": "Massachusetts", "Country": "USA", "Team Name": "839: Rosie Robotics"}},{ "type": "Feature", "geometry": {"type": "Point", "coordinates": [-122.3427124
, 37.937809]}, "properties": {"Year": "2002", "Team Number": "841", "City": "Richmond", "State": "California", "Country": "USA", "Team Name": "841: The BioMechs"}},{ "type": "Feature", "geometry": {"type": "Point", "coordinates": [-112.075798
, 33.4482498]}, "properties": {"Year": "2002", "Team Number": "842", "City": "Phoenix", "State": "Arizona", "Country": "USA", "Team Name": "842: Falcon Robotics"}},{ "type": "Feature", "geometry": {"type": "Point", "coordinates": [-121.8855667
, 37.3385811]}, "properties": {"Year": "2002", "Team Number": "846", "City": "San Jose", "State": "California", "Country": "USA", "Team Name": "846: The Funky Monkeys"}},{ "type": "Feature", "geometry": {"type": "Point", "coordinates": [-123.3685913
, 44.5401306]}, "properties": {"Year": "2002", "Team Number": "847", "City": "Philomath", "State": "Oregon", "Country": "USA", "Team Name": "847: PHRED"}},{ "type": "Feature", "geometry": {"type": "Point", "coordinates": [-118.2982864
, 33.7414703]}, "properties": {"Year": "2002", "Team Number": "848", "City": "San Pedro", "State": "California", "Country": "USA", "Team Name": "848: ROBOHUSKIES"}},{ "type": "Feature", "geometry": {"type": "Point", "coordinates": [-122.0047684
, 37.8316193]}, "properties": {"Year": "2002", "Team Number": "852", "City": "Danville", "State": "California", "Country": "USA", "Team Name": "852: The Athenian Robotics Collective"}},{ "type": "Feature", "geometry": {"type": "Point", "coordinates": [-79.4328003
, 43.6573982]}, "properties": {"Year": "2002", "Team Number": "854", "City": "Toronto", "State": "Ontario", "Country": "Canada", "Team Name": "854: The Iron Bears"}},{ "type": "Feature", "geometry": {"type": "Point", "coordinates": [-88.5700226
, 47.1218605]}, "properties": {"Year": "2002", "Team Number": "857", "City": "Houghton", "State": "Michigan", "Country": "USA", "Team Name": "857: Superior Roboworks"}},{ "type": "Feature", "geometry": {"type": "Point", "coordinates": [-85.694603
, 42.9133987]}, "properties": {"Year": "2002", "Team Number": "858", "City": "Wyoming", "State": "Michigan", "Country": "USA", "Team Name": "858: Demons"}},{ "type": "Feature", "geometry": {"type": "Point", "coordinates": [-83.4868011
, 42.2995987]}, "properties": {"Year": "2002", "Team Number": "862", "City": "Canton", "State": "Michigan", "Country": "USA", "Team Name": "862: Lightning Robotics"}},{ "type": "Feature", "geometry": {"type": "Point", "coordinates": [-79.4328003
, 43.6573982]}, "properties": {"Year": "2002", "Team Number": "865", "City": "Toronto", "State": "Ontario", "Country": "Canada", "Team Name": "865: WARP7"}},{ "type": "Feature", "geometry": {"type": "Point", "coordinates": [-118.0388718
, 34.1361389]}, "properties": {"Year": "2002", "Team Number": "867", "City": "Arcadia", "State": "California", "Country": "USA", "Team Name": "867: Absolute Value"}},{ "type": "Feature", "geometry": {"type": "Point", "coordinates": [-86.1264191
, 39.9783897]}, "properties": {"Year": "2002", "Team Number": "868", "City": "Carmel", "State": "Indiana", "Country": "USA", "Team Name": "868: TechHOUNDS"}},{ "type": "Feature", "geometry": {"type": "Point", "coordinates": [-74.5006714
, 40.579361]}, "properties": {"Year": "2002", "Team Number": "869", "City": "Middlesex", "State": "New Jersey", "Country": "USA", "Team Name": "869: PowerCord"}},{ "type": "Feature", "geometry": {"type": "Point", "coordinates": [-72.4284515
, 41.0641098]}, "properties": {"Year": "2002", "Team Number": "870", "City": "Southold", "State": "New York", "Country": "USA", "Team Name": "870: TEAM  R. I. C. E."}},{ "type": "Feature", "geometry": {"type": "Point", "coordinates": [-73.2909698
, 40.7119713]}, "properties": {"Year": "2002", "Team Number": "871", "City": "West Islip", "State": "New York", "Country": "USA", "Team Name": "871: Robotechs"}},{ "type": "Feature", "geometry": {"type": "Point", "coordinates": [-100.4693985
, 47.4462814]}, "properties": {"Year": "2002", "Team Number": "876", "City": "Hatton/Northwood", "State": "North Dakota", "Country": "USA", "Team Name": "876: Thunder Robotics"}},{ "type": "Feature", "geometry": {"type": "Point", "coordinates": [-99.2096176
, 48.4913902]}, "properties": {"Year": "2002", "Team Number": "877", "City": "Cando", "State": "North Dakota", "Country": "USA", "Team Name": "877: North Star"}},{ "type": "Feature", "geometry": {"type": "Point", "coordinates": [-73.6670914
, 40.6759796]}, "properties": {"Year": "2002", "Team Number": "884", "City": "Malverne", "State": "New York", "Country": "USA", "Team Name": "884: Mechanical Mules"}},{ "type": "Feature", "geometry": {"type": "Point", "coordinates": [-72.6069489
, 43.9400597]}, "properties": {"Year": "2002", "Team Number": "885", "City": "Randolph Center", "State": "Vermont", "Country": "USA", "Team Name": "885: THE GREEN TEAM"}},{ "type": "Feature", "geometry": {"type": "Point", "coordinates": [-79.4162979
, 43.7667999]}, "properties": {"Year": "2002", "Team Number": "886", "City": "North York", "State": "Ontario", "Country": "Canada", "Team Name": "886: Wildcats"}},{ "type": "Feature", "geometry": {"type": "Point", "coordinates": [-76.986702
, 39.2666092]}, "properties": {"Year": "2002", "Team Number": "888", "City": "Glenelg", "State": "Maryland", "Country": "USA", "Team Name": "888: Robotiators"}},{ "type": "Feature", "geometry": {"type": "Point", "coordinates": [-83.6867905
, 43.0114403]}, "properties": {"Year": "2002", "Team Number": "894", "City": "Flint", "State": "Michigan", "Country": "USA", "Team Name": "894: Chargers"}},{ "type": "Feature", "geometry": {"type": "Point", "coordinates": [-78.8964386
, 35.9954185]}, "properties": {"Year": "2002", "Team Number": "900", "City": "Durham", "State": "North Carolina", "Country": "USA", "Team Name": "900: ?The Zebracorns?"}},{ "type": "Feature", "geometry": {"type": "Point", "coordinates": [-85.6711807
, 42.9664116]}, "properties": {"Year": "2002", "Team Number": "904", "City": "Grand Rapids", "State": "Michigan", "Country": "USA", "Team Name": "904: D cubed"}},{ "type": "Feature", "geometry": {"type": "Point", "coordinates": [-83.1094131
, 42.5199814]}, "properties": {"Year": "2002", "Team Number": "910", "City": "Madison Heights", "State": "Michigan", "Country": "USA", "Team Name": "910: The Foley Freeze"}},{ "type": "Feature", "geometry": {"type": "Point", "coordinates": [-79.4328003
, 43.6573982]}, "properties": {"Year": "2002", "Team Number": "919", "City": "Toronto", "State": "Ontario", "Country": "Canada", "Team Name": "919: Tiger Techs"}},{ "type": "Feature", "geometry": {"type": "Point", "coordinates": [-88.3293304
, 42.8588905]}, "properties": {"Year": "2002", "Team Number": "930", "City": "Mukwonago", "State": "Wisconsin", "Country": "USA", "Team Name": "930: Mukwonago BEARs"}},{ "type": "Feature", "geometry": {"type": "Point", "coordinates": [-90.1995621
, 38.6277504]}, "properties": {"Year": "2002", "Team Number": "931", "City": "St. Louis", "State": "Missouri", "Country": "USA", "Team Name": "931: Perpetual Chaos"}},{ "type": "Feature", "geometry": {"type": "Point", "coordinates": [-95.9933319
, 36.1497383]}, "properties": {"Year": "2002", "Team Number": "932", "City": "Tulsa", "State": "Oklahoma", "Country": "USA", "Team Name": "932: Circuit Chargers"}},{ "type": "Feature", "geometry": {"type": "Point", "coordinates": [-97.3451309
, 38.0531387]}, "properties": {"Year": "2002", "Team Number": "935", "City": "Newton", "State": "Kansas", "Country": "USA", "Team Name": "935: RaileRobotics"}},{ "type": "Feature", "geometry": {"type": "Point", "coordinates": [-94.6716766
, 38.98489]}, "properties": {"Year": "2002", "Team Number": "937", "City": "Overland Park", "State": "Kansas", "Country": "USA", "Team Name": "937: Robo Tribe"}},{ "type": "Feature", "geometry": {"type": "Point", "coordinates": [-81.377388
, 28.5382309]}, "properties": {"Year": "2002", "Team Number": "945", "City": "Orlando", "State": "Florida", "Country": "USA", "Team Name": "945: Team Banana"}},{ "type": "Feature", "geometry": {"type": "Point", "coordinates": [-122.187851
, 47.6100197]}, "properties": {"Year": "2002", "Team Number": "948", "City": "Bellevue", "State": "Washington", "Country": "USA", "Team Name": "948: NRG (Newport Robotics Group)"}},{ "type": "Feature", "geometry": {"type": "Point", "coordinates": [-122.187851
, 47.6100197]}, "properties": {"Year": "2002", "Team Number": "949", "City": "Bellevue", "State": "Washington", "Country": "USA", "Team Name": "949: Wolverine Robotics"}},{ "type": "Feature", "geometry": {"type": "Point", "coordinates": [-123.2635269
, 44.5650406]}, "properties": {"Year": "2002", "Team Number": "955", "City": "Corvallis", "State": "Oregon", "Country": "USA", "Team Name": "955: CV Robotics"}},{ "type": "Feature", "geometry": {"type": "Point", "coordinates": [-123.1077576
, 44.635479]}, "properties": {"Year": "2002", "Team Number": "957", "City": "Albany", "State": "Oregon", "Country": "USA", "Team Name": "957: SWARM"}},{ "type": "Feature", "geometry": {"type": "Point", "coordinates": [-91.5998993
, 42.0332909]}, "properties": {"Year": "2002", "Team Number": "967", "City": "Marion", "State": "Iowa", "Country": "USA", "Team Name": "967: Iron Lions"}},{ "type": "Feature", "geometry": {"type": "Point", "coordinates": [-117.9380722
, 34.0721397]}, "properties": {"Year": "2002", "Team Number": "968", "City": "West Covina", "State": "California", "Country": "USA", "Team Name": "968: RAWC (Robotics Alliance Of West Covina)"}},{ "type": "Feature", "geometry": {"type": "Point", "coordinates": [-122.0815964
, 37.3896713]}, "properties": {"Year": "2002", "Team Number": "971", "City": "Mountain View", "State": "California", "Country": "USA", "Team Name": "971: Spartan Robotics"}},{ "type": "Feature", "geometry": {"type": "Point", "coordinates": [-121.9792709
, 37.2213097]}, "properties": {"Year": "2002", "Team Number": "972", "City": "Los Gatos", "State": "California", "Country": "USA", "Team Name": "972: Iron Claw"}},{ "type": "Feature", "geometry": {"type": "Point", "coordinates": [-120.6690598
, 35.4886894]}, "properties": {"Year": "2002", "Team Number": "973", "City": "Atascadero", "State": "California", "Country": "USA", "Team Name": "973: Greybots"}},{ "type": "Feature", "geometry": {"type": "Point", "coordinates": [-78.9013214
, 36.6988602]}, "properties": {"Year": "2002", "Team Number": "977", "City": "South Boston", "State": "Virginia", "Country": "USA", "Team Name": "977: Cometbots"}},{ "type": "Feature", "geometry": {"type": "Point", "coordinates": [-118.4476776
, 34.3132248]}, "properties": {"Year": "2002", "Team Number": "980", "City": "Sylmar", "State": "California", "Country": "USA", "Team Name": "980: ThunderBots"}},{ "type": "Feature", "geometry": {"type": "Point", "coordinates": [-118.8636169
, 34.8373299]}, "properties": {"Year": "2002", "Team Number": "981", "City": "Lebec", "State": "California", "Country": "USA", "Team Name": "981: Snobotics"}},{ "type": "Feature", "geometry": {"type": "Point", "coordinates": [-115.1399689
, 36.1719093]}, "properties": {"Year": "2002", "Team Number": "987", "City": "Las Vegas", "State": "Nevada", "Country": "USA", "Team Name": "987: HIGHROLLERS"}},{ "type": "Feature", "geometry": {"type": "Point", "coordinates": [-115.1399689
, 36.1719093]}, "properties": {"Year": "2002", "Team Number": "988", "City": "Las Vegas", "State": "Nevada", "Country": "USA", "Team Name": "988: Steel Phoenix"}},{ "type": "Feature", "geometry": {"type": "Point", "coordinates": [-112.075798
, 33.4482498]}, "properties": {"Year": "2002", "Team Number": "991", "City": "Phoenix", "State": "Arizona", "Country": "USA", "Team Name": "991: BroncoBotics"}},{ "type": "Feature", "geometry": {"type": "Point", "coordinates": [-111.7503204
, 32.8795395]}, "properties": {"Year": "2002", "Team Number": "996", "City": "Casa Grande", "State": "Arizona", "Country": "USA", "Team Name": "996: Mecha Knights"}},{ "type": "Feature", "geometry": {"type": "Point", "coordinates": [-123.2635269
, 44.5650406]}, "properties": {"Year": "2002", "Team Number": "997", "City": "Corvallis", "State": "Oregon", "Country": "USA", "Team Name": "997: Spartan Robotics"}},{ "type": "Feature", "geometry": {"type": "Point", "coordinates": [-72.8991089
, 41.5116882]}, "properties": {"Year": "2002", "Team Number": "999", "City": "Cheshire", "State": "Connecticut", "Country": "USA", "Team Name": "999: MechaRAMS"}},{ "type": "Feature", "geometry": {"type": "Point", "coordinates": [-84.5458832
, 33.9531898]}, "properties": {"Year": "2003", "Team Number": "1002", "City": "Marietta", "State": "Georgia", "Country": "USA", "Team Name": "1002: The CircuitRunners"}},{ "type": "Feature", "geometry": {"type": "Point", "coordinates": [-110.9697571
, 32.22155]}, "properties": {"Year": "2003", "Team Number": "1011", "City": "Tucson", "State": "Arizona", "Country": "USA", "Team Name": "1011: CRUSH"}},{ "type": "Feature", "geometry": {"type": "Point", "coordinates": [-83.1330872
, 40.104969]}, "properties": {"Year": "2003", "Team Number": "1014", "City": "Dublin", "State": "Ohio", "Country": "USA", "Team Name": "1014: Bad Robots"}},{ "type": "Feature", "geometry": {"type": "Point", "coordinates": [-86.1499634
, 39.7669106]}, "properties": {"Year": "2003", "Team Number": "1018", "City": "Indianapolis", "State": "Indiana", "Country": "USA", "Team Name": "1018: Pike RoboDevils"}},{ "type": "Feature", "geometry": {"type": "Point", "coordinates": [-83.5688171
, 41.778759]}, "properties": {"Year": "2003", "Team Number": "1023", "City": "Temperance", "State": "Michigan", "Country": "USA", "Team Name": "1023: Bedford Express"}},{ "type": "Feature", "geometry": {"type": "Point", "coordinates": [-86.1499634
, 39.7669106]}, "properties": {"Year": "2003", "Team Number": "1024", "City": "Indianapolis", "State": "Indiana", "Country": "USA", "Team Name": "1024: Kil-A-Bytes"}},{ "type": "Feature", "geometry": {"type": "Point", "coordinates": [-83.1314163
, 42.460659]}, "properties": {"Year": "2003", "Team Number": "1025", "City": "Ferndale", "State": "Michigan", "Country": "USA", "Team Name": "1025: IMPIS"}},{ "type": "Feature", "geometry": {"type": "Point", "coordinates": [-72.621727
, 42.1058388]}, "properties": {"Year": "2003", "Team Number": "1027", "City": "West Springfield", "State": "Massachusetts", "Country": "USA", "Team Name": "1027: Project Jabberwocky"}},{ "type": "Feature", "geometry": {"type": "Point", "coordinates": [-84.0469437
, 41.4411125]}, "properties": {"Year": "2003", "Team Number": "1038", "City": "Liberty Township", "State": "Ohio", "Country": "USA", "Team Name": "1038: Thunderhawks"}},{ "type": "Feature", "geometry": {"type": "Point", "coordinates": [-79.4004135
, 34.1780586]}, "properties": {"Year": "2003", "Team Number": "1051", "City": "Marion", "State": "South Carolina", "Country": "USA", "Team Name": "1051: Technical Terminators"}},{ "type": "Feature", "geometry": {"type": "Point", "coordinates": [-155.0818481
, 19.7192402]}, "properties": {"Year": "2003", "Team Number": "1056", "City": "Hilo", "State": "Hawaii", "Country": "USA", "Team Name": "1056: Hot Rocks"}},{ "type": "Feature", "geometry": {"type": "Point", "coordinates": [-71.3747787
, 42.8663788]}, "properties": {"Year": "2003", "Team Number": "1058", "City": "Londonderry", "State": "New Hampshire", "Country": "USA", "Team Name": "1058: PVC Pirates"}},{ "type": "Feature", "geometry": {"type": "Point", "coordinates": [-81.4067383
, 28.2944298]}, "properties": {"Year": "2003", "Team Number": "1065", "City": "Kissimmee", "State": "Florida", "Country": "USA", "Team Name": "1065: The Moose"}},{ "type": "Feature", "geometry": {"type": "Point", "coordinates": [-72.9829712
, 41.5786896]}, "properties": {"Year": "2003", "Team Number": "1071", "City": "Wolcott", "State": "Connecticut", "Country": "USA", "Team Name": "1071: Team Max"}},{ "type": "Feature", "geometry": {"type": "Point", "coordinates": [-121.8855667
, 37.3385811]}, "properties": {"Year": "2003", "Team Number": "1072", "City": "San Jose", "State": "California", "Country": "USA", "Team Name": "1072: Harker Robotics"}},{ "type": "Feature", "geometry": {"type": "Point", "coordinates": [-71.5914993
, 42.7431107]}, "properties": {"Year": "2003", "Team Number": "1073", "City": "Hollis", "State": "New Hampshire", "Country": "USA", "Team Name": "1073: The Force Team"}},{ "type": "Feature", "geometry": {"type": "Point", "coordinates": [-78.9136963
, 43.9063988]}, "properties": {"Year": "2003", "Team Number": "1075", "City": "Whitby", "State": "Ontario", "Country": "Canada", "Team Name": "1075: Sprockets"}},{ "type": "Feature", "geometry": {"type": "Point", "coordinates": [-83.7484665
, 42.2821007]}, "properties": {"Year": "2003", "Team Number": "1076", "City": "Ann Arbor", "State": "Michigan", "Country": "USA", "Team Name": "1076: Pi Hi Samurai"}},{ "type": "Feature", "geometry": {"type": "Point", "coordinates": [-77.4336472
, 37.540699]}, "properties": {"Year": "2003", "Team Number": "1080", "City": "Richmond", "State": "Virginia", "Country": "USA", "Team Name": "1080: Resurgence Robotics"}},{ "type": "Feature", "geometry": {"type": "Point", "coordinates": [-77.5041504
, 37.6653099]}, "properties": {"Year": "2003", "Team Number": "1086", "City": "Glen Allen", "State": "Virginia", "Country": "USA", "Team Name": "1086: Blue Cheese"}},{ "type": "Feature", "geometry": {"type": "Point", "coordinates": [-74.5225296
, 40.2704086]}, "properties": {"Year": "2003", "Team Number": "1089", "City": "Hightstown", "State": "New Jersey", "Country": "USA", "Team Name": "1089: Team Mercury"}},{ "type": "Feature", "geometry": {"type": "Point", "coordinates": [-88.378891
, 43.3194008]}, "properties": {"Year": "2003", "Team Number": "1091", "City": "Hartford", "State": "Wisconsin", "Country": "USA", "Team Name": "1091: Oriole Assault"}},{ "type": "Feature", "geometry": {"type": "Point", "coordinates": [-90.6999435
, 38.8102913]}, "properties": {"Year": "2003", "Team Number": "1094", "City": "O'Fallon", "State": "Missouri", "Country": "USA", "Team Name": "1094: Channel Cats"}},{ "type": "Feature", "geometry": {"type": "Point", "coordinates": [-73.3962479
, 41.4620895]}, "properties": {"Year": "2003", "Team Number": "1099", "City": "Brookfield", "State": "Connecticut", "Country": "USA", "Team Name": "1099: DiscoTechs"}},{ "type": "Feature", "geometry": {"type": "Point", "coordinates": [-71.6370163
, 42.3202095]}, "properties": {"Year": "2003", "Team Number": "1100", "City": "Northboro", "State": "Massachusetts", "Country": "USA", "Team Name": "1100: The T-Hawks"}},{ "type": "Feature", "geometry": {"type": "Point", "coordinates": [-81.7221375
, 33.5616417]}, "properties": {"Year": "2003", "Team Number": "1102", "City": "Aiken", "State": "South Carolina", "Country": "USA", "Team Name": "1102: Aiken County Robotics"}},{ "type": "Feature", "geometry": {"type": "Point", "coordinates": [-94.8757706
, 38.5788918]}, "properties": {"Year": "2003", "Team Number": "1108", "City": "Paola", "State": "Kansas", "Country": "USA", "Team Name": "1108: Panther Robotics"}},{ "type": "Feature", "geometry": {"type": "Point", "coordinates": [-76.5655212
, 38.9260712]}, "properties": {"Year": "2003", "Team Number": "1111", "City": "Edgewater", "State": "Maryland", "Country": "USA", "Team Name": "1111: Power Hawks"}},{ "type": "Feature", "geometry": {"type": "Point", "coordinates": [-79.2254028
, 43.1381989]}, "properties": {"Year": "2003", "Team Number": "1114", "City": "St. Catharines", "State": "Ontario", "Country": "Canada", "Team Name": "1114: Simbotics"}},{ "type": "Feature", "geometry": {"type": "Point", "coordinates": [-77.2722778
, 38.7932281]}, "properties": {"Year": "2003", "Team Number": "1123", "City": "Burke (open to all Fairfax & Loudoun County)", "State": "Virginia", "Country": "USA", "Team Name": "1123: AIM Robotics"}},{ "type": "Feature", "geometry": {"type": "Point", "coordinates": [-72.8296509
, 41.8108788]}, "properties": {"Year": "2003", "Team Number": "1124", "City": "Avon", "State": "Connecticut", "Country": "USA", "Team Name": "1124: UberBots"}},{ "type": "Feature", "geometry": {"type": "Point", "coordinates": [-77.4596176
, 43.2088699]}, "properties": {"Year": "2003", "Team Number": "1126", "City": "Webster", "State": "New York", "Country": "USA", "Team Name": "1126: SPARX"}},{ "type": "Feature", "geometry": {"type": "Point", "coordinates": [-84.2855606
, 34.13694]}, "properties": {"Year": "2003", "Team Number": "1127", "City": "Milton", "State": "Georgia", "Country": "USA", "Team Name": "1127: Lotus Robotics"}},{ "type": "Feature", "geometry": {"type": "Point", "coordinates": [-76.3120422
, 37.4378204]}, "properties": {"Year": "2003", "Team Number": "1137", "City": "Mathews", "State": "Virginia", "Country": "USA", "Team Name": "1137: Rocket Sauce"}},{ "type": "Feature", "geometry": {"type": "Point", "coordinates": [-118.6377563
, 34.2073441]}, "properties": {"Year": "2003", "Team Number": "1138", "City": "West Hills", "State": "California", "Country": "USA", "Team Name": "1138: Eagle Engineering"}},{ "type": "Feature", "geometry": {"type": "Point", "coordinates": [-75.7008514
, 41.4932785]}, "properties": {"Year": "2003", "Team Number": "1143", "City": "Clarks Summit", "State": "Pennsylvania", "Country": "USA", "Team Name": "1143: Cruzin' Comets"}},{ "type": "Feature", "geometry": {"type": "Point", "coordinates": [-118.3891754
, 34.1399727]}, "properties": {"Year": "2003", "Team Number": "1148", "City": "Studio City", "State": "California", "Country": "USA", "Team Name": "1148: Wafflebots"}},{ "type": "Feature", "geometry": {"type": "Point", "coordinates": [-71.2491302
, 42.1462517]}, "properties": {"Year": "2003", "Team Number": "1153", "City": "Walpole", "State": "Massachusetts", "Country": "USA", "Team Name": "1153: Robo-Rebels"}},{ "type": "Feature", "geometry": {"type": "Point", "coordinates": [-73.8860092
, 40.8372917]}, "properties": {"Year": "2003", "Team Number": "1155", "City": "Bronx", "State": "New York", "Country": "USA", "Team Name": "1155: SciBorgs"}},{ "type": "Feature", "geometry": {"type": "Point", "coordinates": [-51.1277618
, -29.6832504]}, "properties": {"Year": "2003", "Team Number": "1156", "City": "Novo Hamburgo", "State": "Rio Grande do Sul", "Country": "Brazil", "Team Name": "1156: Under Control"}},{ "type": "Feature", "geometry": {"type": "Point", "coordinates": [-105.2792435
, 40.0157394]}, "properties": {"Year": "2003", "Team Number": "1157", "City": "Boulder", "State": "Colorado", "Country": "USA", "Team Name": "1157: Landsharks"}},{ "type": "Feature", "geometry": {"type": "Point", "coordinates": [-118.1272736
, 34.0937004]}, "properties": {"Year": "2003", "Team Number": "1159", "City": "Alhambra", "State": "California", "Country": "USA", "Team Name": "1159: Ramona Rampage"}},{ "type": "Feature", "geometry": {"type": "Point", "coordinates": [-118.1051636
, 34.1221008]}, "properties": {"Year": "2003", "Team Number": "1160", "City": "San Marino", "State": "California", "Country": "USA", "Team Name": "1160: Titanium"}},{ "type": "Feature", "geometry": {"type": "Point", "coordinates": [-106.7778473
, 32.3069]}, "properties": {"Year": "2003", "Team Number": "1164", "City": "Las Cruces", "State": "New Mexico", "Country": "USA", "Team Name": "1164: Project NEO"}},{ "type": "Feature", "geometry": {"type": "Point", "coordinates": [-112.075798
, 33.4482498]}, "properties": {"Year": "2003", "Team Number": "1165", "City": "Phoenix", "State": "Arizona", "Country": "USA", "Team Name": "1165: Team Paradise"}},{ "type": "Feature", "geometry": {"type": "Point", "coordinates": [-75.510437
, 40.0369186]}, "properties": {"Year": "2003", "Team Number": "1168", "City": "Malvern", "State": "Pennsylvania", "Country": "USA", "Team Name": "1168: Malvern Robotics"}},{ "type": "Feature", "geometry": {"type": "Point", "coordinates": [-90.1995621
, 38.6277504]}, "properties": {"Year": "2003", "Team Number": "1178", "City": "St. Louis", "State": "Missouri", "Country": "USA", "Team Name": "1178: DuRT  (De Smet united Robotics Team)"}},{ "type": "Feature", "geometry": {"type": "Point", "coordinates": [-83.1424408
, 42.4881516]},